address,category,details,id,lat,lng,location,name,numReviews,originalId,polarity,reviews,subCategory,Sub,vader
Capitol Hotel,attraction,http://tour-pedia.org/api/getPlaceDetails?id=114470,114470,25.241846,55.275347,Dubai,Bazerkan Resturant,1.0,4b0587ecf964a52001a722e3,0.0,http://tour-pedia.org/api/getReviewsByPlaceId?placeId=114470,Bar,Nightlife,-0.2
Baniyas Street/Creek Road,attraction,http://tour-pedia.org/api/getPlaceDetails?id=114471,114471,25.261825915824,55.313784764314,Dubai,Chelsea Arms,2.0,4b0587ecf964a52002a722e3,3.0,http://tour-pedia.org/api/getReviewsByPlaceId?placeId=114471,Bar,Nightlife,0.0
Airport Road,attraction,http://tour-pedia.org/api/getPlaceDetails?id=114473,114473,25.241177,55.369374,Dubai,Al Pasha Restaurant & Keyclub,1.0,4b0587ecf964a52005a722e3,10.0,http://tour-pedia.org/api/getReviewsByPlaceId?placeId=114473,Wine Bar,Nightlife,-0.17
Abu Baker Al Siddique Road,attraction,http://tour-pedia.org/api/getPlaceDetails?id=114475,114475,25.26854454115,55.329845769634,Dubai,Piano Lounge,1.0,4b0587ecf964a52008a722e3,5.0,http://tour-pedia.org/api/getReviewsByPlaceId?placeId=114475,Cocktail Bar,Nightlife,0.08
Casablanca St. Al Garhoud,attraction,http://tour-pedia.org/api/getPlaceDetails?id=114477,114477,25.247277234333,55.344979763031,Dubai,Rodeo Grill & Bar @ Al Bustan Rotana Dubai,2.0,4b0587ecf964a5200aa722e3,8.0,http://tour-pedia.org/api/getReviewsByPlaceId?placeId=114477,Bar,Nightlife,0.42
Al Mina Road,attraction,http://tour-pedia.org/api/getPlaceDetails?id=114478,114478,25.241902717716,55.278028161973,Dubai,Xanadu,1.0,4b0587ecf964a5200fa722e3,5.0,http://tour-pedia.org/api/getReviewsByPlaceId?placeId=114478,Cocktail Bar,Nightlife,0.0
"Tennis Stadium, Aviation Club",attraction,http://tour-pedia.org/api/getPlaceDetails?id=114480,114480,25.242798770361,55.341981053352,Dubai,Da Gama,5.0,4b0587ecf964a52015a722e3,7.0,http://tour-pedia.org/api/getReviewsByPlaceId?placeId=114480,Bar,Nightlife,0.09
Jebel Ali Golf Resort & Spa فندق ومنتجع جبل علي للجولف,attraction,http://tour-pedia.org/api/getPlaceDetails?id=114481,114481,24.987638,55.023284,Dubai,Club Joumana Sports Cafe,2.0,4b0587ecf964a52017a722e3,3.0,http://tour-pedia.org/api/getReviewsByPlaceId?placeId=114481,Sports Bar,Nightlife,0.25
Al Diyafah Street,attraction,http://tour-pedia.org/api/getPlaceDetails?id=114482,114482,25.235286718673,55.279744658475,Dubai,Cactus Cantina,11.0,4b0587ecf964a5201aa722e3,8.0,http://tour-pedia.org/api/getReviewsByPlaceId?placeId=114482,Bar,Nightlife,0.3
Grosvenor House Dubai,attraction,http://tour-pedia.org/api/getPlaceDetails?id=114486,114486,25.085733329588,55.144173820262,Dubai,Bar 44,15.0,4b0587ecf964a5201fa722e3,7.0,http://tour-pedia.org/api/getReviewsByPlaceId?placeId=114486,Cocktail Bar,Nightlife,0.54
Jebel Ali Golf Resort & Spa فندق ومنتجع جبل علي للجولف,attraction,http://tour-pedia.org/api/getPlaceDetails?id=114487,114487,24.987638,55.023284,Dubai,Captain's Bar,1.0,4b0587ecf964a52022a722e3,5.0,http://tour-pedia.org/api/getReviewsByPlaceId?placeId=114487,Bar,Nightlife,0.57
"Al Muteena Street, PO Box 25570",attraction,http://tour-pedia.org/api/getPlaceDetails?id=114488,114488,25.273637426986,55.319174103334,Dubai,El Rancho,4.0,4b0587ecf964a52025a722e3,7.0,http://tour-pedia.org/api/getReviewsByPlaceId?placeId=114488,Bar,Nightlife,0.12
Jumeirah Beach Hotel,attraction,http://tour-pedia.org/api/getPlaceDetails?id=114493,114493,25.141556,55.190221,Dubai,Dhow and Anchor,4.0,4b0587ecf964a5202da722e3,5.0,http://tour-pedia.org/api/getReviewsByPlaceId?placeId=114493,Sports Bar,Nightlife,0.28
"Salah Al Din Road, Deira",attraction,http://tour-pedia.org/api/getPlaceDetails?id=114495,114495,25.270369239919,55.327199332858,Dubai,Harry's Place,2.0,4b0587ecf964a52031a722e3,9.0,http://tour-pedia.org/api/getReviewsByPlaceId?placeId=114495,Bar,Nightlife,0.19
Al Mateena Street,attraction,http://tour-pedia.org/api/getPlaceDetails?id=114500,114500,25.274727173984,55.327804225555,Dubai,Lindbergh's Bar,1.0,4b0587ecf964a520f2a622e3,10.0,http://tour-pedia.org/api/getReviewsByPlaceId?placeId=114500,Bar,Nightlife,0.57
2nd December Street,attraction,http://tour-pedia.org/api/getPlaceDetails?id=114501,114501,25.237242916673,55.27413725853,Dubai,Boston Bar @ Jumeira Rotana,6.0,4b0587ecf964a520f3a622e3,3.0,http://tour-pedia.org/api/getReviewsByPlaceId?placeId=114501,Bar,Nightlife,0.35
Bur Dubai,attraction,http://tour-pedia.org/api/getPlaceDetails?id=114504,114504,25.257709069241,55.297278630256,Dubai,Goodfellas,4.0,4b0587ecf964a520f6a622e3,5.0,http://tour-pedia.org/api/getReviewsByPlaceId?placeId=114504,Bar,Nightlife,-0.01
Rydges Plaza Hotel,attraction,http://tour-pedia.org/api/getPlaceDetails?id=114505,114505,25.235403623782,55.279469368998,Dubai,Champs Bar & Grill,6.0,4b0587ecf964a520f7a622e3,5.0,http://tour-pedia.org/api/getReviewsByPlaceId?placeId=114505,Sports Bar,Nightlife,0.29
Jumeirah Beach Hotel,attraction,http://tour-pedia.org/api/getPlaceDetails?id=114508,114508,25.142934260084,55.191450119019,Dubai,Uptown,5.0,4b0587ecf964a520fca622e3,7.0,http://tour-pedia.org/api/getReviewsByPlaceId?placeId=114508,Cocktail Bar,Nightlife,0.54
"Abu Baker Al Siddique Road, Dubai, UAE",attraction,http://tour-pedia.org/api/getPlaceDetails?id=114509,114509,25.268488257191,55.330291986465,Dubai,Champions Sports Bar at JW Marriott Hotel Dubai (Official Marriott),4.0,4b0587ecf964a520fda622e3,8.0,http://tour-pedia.org/api/getReviewsByPlaceId?placeId=114509,Sports Bar,Nightlife,0.4
The Fairmont,attraction,http://tour-pedia.org/api/getPlaceDetails?id=114510,114510,25.226268965638,55.284467899187,Dubai,The Cigar Bar,3.0,4b0587edf964a52036a722e3,3.0,http://tour-pedia.org/api/getReviewsByPlaceId?placeId=114510,Hookah Bar,Nightlife,0.76
Mina A'Salam Madinat Jumeirah,attraction,http://tour-pedia.org/api/getPlaceDetails?id=114511,114511,25.135222461392,55.186085700989,Dubai,Bahri Bar,12.0,4b0587edf964a5203ba722e3,7.0,http://tour-pedia.org/api/getReviewsByPlaceId?placeId=114511,Bar,Nightlife,0.53
"First Floor, Galleria Mall, Dubai Corniche",attraction,http://tour-pedia.org/api/getPlaceDetails?id=114512,114512,25.278985663328,55.304682254791,Dubai,Hibiki Music Lounge,3.0,4b0587edf964a5203ca722e3,7.0,http://tour-pedia.org/api/getReviewsByPlaceId?placeId=114512,Bar,Nightlife,0.34
"Al Mankhool Road, Bur Dubai",attraction,http://tour-pedia.org/api/getPlaceDetails?id=114516,114516,25.254881,55.293147,Dubai,Jockeys,2.0,4b0587edf964a52043a722e3,8.0,http://tour-pedia.org/api/getReviewsByPlaceId?placeId=114516,Sports Bar,Nightlife,0.33
Towers Rotana,attraction,http://tour-pedia.org/api/getPlaceDetails?id=114518,114518,25.2135124,55.27693,Dubai,Long's Bar,18.0,4b0587edf964a52048a722e3,6.0,http://tour-pedia.org/api/getReviewsByPlaceId?placeId=114518,Hotel Bar,Nightlife,0.4
"Sheikh Zayed Road, Next to Novotel Hotel",attraction,http://tour-pedia.org/api/getPlaceDetails?id=114520,114520,25.223100791356,55.286200718659,Dubai,Lotus One,1.0,4b0587edf964a5204aa722e3,0.0,http://tour-pedia.org/api/getReviewsByPlaceId?placeId=114520,Bar,Nightlife,0.4
Bank Street,attraction,http://tour-pedia.org/api/getPlaceDetails?id=114521,114521,25.258730216881,55.296641557808,Dubai,Club Africana,1.0,4b0587edf964a5204ca722e3,0.0,http://tour-pedia.org/api/getReviewsByPlaceId?placeId=114521,Bar,Nightlife,0.0
"Bin Yas Street, Deira",attraction,http://tour-pedia.org/api/getPlaceDetails?id=114522,114522,25.265373634674,55.311187417325,Dubai,The Pub,1.0,4b0587edf964a5204ea722e3,10.0,http://tour-pedia.org/api/getReviewsByPlaceId?placeId=114522,Sports Bar,Nightlife,0.66
"Al Qasr, Madinat Jumeirah",attraction,http://tour-pedia.org/api/getPlaceDetails?id=114523,114523,25.132528495977,55.184083374084,Dubai,Koubba,16.0,4b0587edf964a5204fa722e3,8.0,http://tour-pedia.org/api/getReviewsByPlaceId?placeId=114523,Cocktail Bar,Nightlife,0.53
Bin Yas Street,attraction,http://tour-pedia.org/api/getPlaceDetails?id=114525,114525,25.265378,55.310439,Dubai,La Moda,1.0,4b0587edf964a52055a722e3,2.0,http://tour-pedia.org/api/getReviewsByPlaceId?placeId=114525,Bar,Nightlife,0.58
Jumeirah Beach Road,attraction,http://tour-pedia.org/api/getPlaceDetails?id=114531,114531,25.099199,55.153759,Dubai,Rooftop Bar @ The Royal Mirage,12.0,4b0587edf964a5205fa722e3,6.0,http://tour-pedia.org/api/getReviewsByPlaceId?placeId=114531,Bar,Nightlife,0.5
Khalid Bin Walid Street,attraction,http://tour-pedia.org/api/getPlaceDetails?id=114532,114532,25.259506869182,55.288311458576,Dubai,Mehfil,2.0,4b0587edf964a52062a722e3,5.0,http://tour-pedia.org/api/getReviewsByPlaceId?placeId=114532,Bar,Nightlife,-0.09
"Al Maktoum Street, Deira",attraction,http://tour-pedia.org/api/getPlaceDetails?id=114533,114533,25.258440152181,55.322738379837,Dubai,Red Square Nightclub,1.0,4b0587edf964a52064a722e3,8.0,http://tour-pedia.org/api/getReviewsByPlaceId?placeId=114533,Bar,Nightlife,0.9
"Al Sufouh Road, P.O. Box 53567",attraction,http://tour-pedia.org/api/getPlaceDetails?id=114535,114535,25.073431964885,55.128851140907,Dubai,Moods Bar,2.0,4b0587edf964a52066a722e3,8.0,http://tour-pedia.org/api/getReviewsByPlaceId?placeId=114535,Cocktail Bar,Nightlife,0.62
"Hilton Dubai Jumeirah Resort, Dubai 2431",attraction,http://tour-pedia.org/api/getPlaceDetails?id=114536,114536,25.07843737443,55.134394168854,Dubai,Studio One,2.0,4b0587edf964a52068a722e3,10.0,http://tour-pedia.org/api/getReviewsByPlaceId?placeId=114536,Bar,Nightlife,0.76
133 Sheikh Zayed Road,attraction,http://tour-pedia.org/api/getPlaceDetails?id=114537,114537,25.206386,55.272815,Dubai,Splash Pool Bar,1.0,4b0587edf964a5206aa722e3,9.0,http://tour-pedia.org/api/getReviewsByPlaceId?placeId=114537,Bar,Nightlife,0.93
"Baniyas Road, P. O. Box 33398",attraction,http://tour-pedia.org/api/getPlaceDetails?id=114543,114543,25.25992249377,55.318277656914,Dubai,Glasshouse,4.0,4b0587edf964a5207ba722e3,6.0,http://tour-pedia.org/api/getReviewsByPlaceId?placeId=114543,Wine Bar,Nightlife,0.37
10 31 A St.,attraction,http://tour-pedia.org/api/getPlaceDetails?id=114545,114545,25.242824267441,55.341966403827,Dubai,Irish Village,82.0,4b0587edf964a5207da722e3,7.0,http://tour-pedia.org/api/getReviewsByPlaceId?placeId=114545,Bar,Nightlife,0.48
Baniyas Road,attraction,http://tour-pedia.org/api/getPlaceDetails?id=114548,114548,25.265029347339,55.31054019928,Dubai,Up On The Tenth,3.0,4b0587edf964a52082a722e3,7.0,http://tour-pedia.org/api/getReviewsByPlaceId?placeId=114548,Cocktail Bar,Nightlife,0.54
"Garhoud, Al Qutaeyat Road, P.O. Box 7978",attraction,http://tour-pedia.org/api/getPlaceDetails?id=114552,114552,25.227603,55.32716,Dubai,Vinoteca,1.0,4b0587eef964a5208aa722e3,10.0,http://tour-pedia.org/api/getReviewsByPlaceId?placeId=114552,Wine Bar,Nightlife,0.61
Emirates Towers,attraction,http://tour-pedia.org/api/getPlaceDetails?id=114555,114555,25.217565866243,55.282961832046,Dubai,Vu's Bar,9.0,4b0587eef964a5208fa722e3,6.0,http://tour-pedia.org/api/getReviewsByPlaceId?placeId=114555,Cocktail Bar,Nightlife,0.32
Khalid Bin Waleed Road,attraction,http://tour-pedia.org/api/getPlaceDetails?id=114558,114558,25.259247093508,55.291977035036,Dubai,Waxy O'Conner's,3.0,4b0587eef964a52095a722e3,5.0,http://tour-pedia.org/api/getReviewsByPlaceId?placeId=114558,Bar,Nightlife,0.31
Jumeirah Beach Hotel,attraction,http://tour-pedia.org/api/getPlaceDetails?id=114563,114563,25.141369,55.18947499598,Dubai,Beachcombers,4.0,4b0587eef964a520a0a722e3,8.0,http://tour-pedia.org/api/getReviewsByPlaceId?placeId=114563,Bar,Nightlife,0.87
Sheikh Rashid Road,attraction,http://tour-pedia.org/api/getPlaceDetails?id=114568,114568,25.228134,55.320326,Dubai,Crossroads Cocktail Bar & Terrace,3.0,4b0587eef964a520a8a722e3,8.0,http://tour-pedia.org/api/getReviewsByPlaceId?placeId=114568,Bar,Nightlife,0.5
Novotel World Trade Centre,attraction,http://tour-pedia.org/api/getPlaceDetails?id=114569,114569,25.221615635449,55.288775720322,Dubai,Blue Bar - Novotel World Trade Centre,15.0,4b0587eef964a520a9a722e3,9.0,http://tour-pedia.org/api/getReviewsByPlaceId?placeId=114569,Bar,Nightlife,0.44
Sheikh Zayed Road,attraction,http://tour-pedia.org/api/getPlaceDetails?id=114570,114570,25.123534044345,55.201986125788,Dubai,Après,4.0,4b0587eef964a520aba722e3,6.0,http://tour-pedia.org/api/getReviewsByPlaceId?placeId=114570,Bar,Nightlife,0.44
Majestic Hotel Dubai,attraction,http://tour-pedia.org/api/getPlaceDetails?id=114571,114571,25.253688554898,55.293294305268,Dubai,Barrels Sports Bar,11.0,4b0587eef964a520ada722e3,7.0,http://tour-pedia.org/api/getReviewsByPlaceId?placeId=114571,Sports Bar,Nightlife,0.63
Sheikh Zayed Road,attraction,http://tour-pedia.org/api/getPlaceDetails?id=114573,114573,25.119013435114,55.197558620986,Dubai,1897 Bar,7.0,4b0587eef964a520afa722e3,6.0,http://tour-pedia.org/api/getReviewsByPlaceId?placeId=114573,Whisky Bar,Nightlife,0.4
Fairmont Hotel Dubai,attraction,http://tour-pedia.org/api/getPlaceDetails?id=114574,114574,25.226159316563,55.284845769623,Dubai,Cin Cin,7.0,4b0587eef964a520b2a722e3,6.0,http://tour-pedia.org/api/getReviewsByPlaceId?placeId=114574,Wine Bar,Nightlife,0.25
"133, Sheikh Zayed Road",attraction,http://tour-pedia.org/api/getPlaceDetails?id=114576,114576,25.206493728443,55.272619802256,Dubai,My Bar,4.0,4b0587eef964a520bba722e3,10.0,http://tour-pedia.org/api/getReviewsByPlaceId?placeId=114576,Bar,Nightlife,0.53
Al Fahidi Street,attraction,http://tour-pedia.org/api/getPlaceDetails?id=114577,114577,25.262522961512,55.297246236629,Dubai,Sherlock Holmes English Pub,2.0,4b0587eef964a520bca722e3,10.0,http://tour-pedia.org/api/getReviewsByPlaceId?placeId=114577,Bar,Nightlife,0.47
Benyas Road,attraction,http://tour-pedia.org/api/getPlaceDetails?id=114582,114582,25.267902419949,55.303466036073,Dubai,Duke's Bar,2.0,4b0587eef964a520c6a722e3,10.0,http://tour-pedia.org/api/getReviewsByPlaceId?placeId=114582,Cocktail Bar,Nightlife,0.53
Radisson Blu Hotel,attraction,http://tour-pedia.org/api/getPlaceDetails?id=114733,114733,25.093585881206,55.155122280121,Dubai,Tamanya Terrace,14.0,4b168e82f964a5204fba23e3,6.0,http://tour-pedia.org/api/getReviewsByPlaceId?placeId=114733,Hotel Bar,Nightlife,0.36
Madinat Jumeirah,attraction,http://tour-pedia.org/api/getPlaceDetails?id=114747,114747,25.133413242462,55.184784315002,Dubai,Trader Vic's,61.0,4b214259f964a520203924e3,4.0,http://tour-pedia.org/api/getReviewsByPlaceId?placeId=114747,Bar,Nightlife,0.21
Jumeriah Beach Residence,attraction,http://tour-pedia.org/api/getPlaceDetails?id=114779,114779,25.07976947932,55.136416710969,Dubai,Trader Vic's,10.0,4b3e4f0ff964a520069b25e3,6.0,http://tour-pedia.org/api/getReviewsByPlaceId?placeId=114779,Cocktail Bar,Nightlife,0.31
The Address Downtown Dubai العنوان وسط مدينة دبي,attraction,http://tour-pedia.org/api/getPlaceDetails?id=114828,114828,25.194793518708,55.278173900914,Dubai,Zeta زيتا,7.0,4b54970af964a52082c127e3,6.0,http://tour-pedia.org/api/getReviewsByPlaceId?placeId=114828,Hotel Bar,Nightlife,0.15
near Jebel Ali Racecourse Rd,attraction,http://tour-pedia.org/api/getPlaceDetails?id=114874,114874,25.09607002561,55.177942298906,Dubai,Belgium Beer Cafe,1.0,4b601f3bf964a52083d629e3,0.0,http://tour-pedia.org/api/getReviewsByPlaceId?placeId=114874,Hotel Bar,Nightlife,0.56
Dubai Media City,attraction,http://tour-pedia.org/api/getPlaceDetails?id=115089,115089,25.104311,55.166042,Dubai,"Vista Rooftop Bar, Holiday Inn Express",7.0,4b8e96e3f964a520882a33e3,7.0,http://tour-pedia.org/api/getReviewsByPlaceId?placeId=115089,Bar,Nightlife,0.16
Grand Millenium Dubai Hotel,attraction,http://tour-pedia.org/api/getPlaceDetails?id=115090,115090,25.101144857973,55.177829861641,Dubai,Belgian Beer Cafe,72.0,4b8e9ba7f964a520942b33e3,6.0,http://tour-pedia.org/api/getReviewsByPlaceId?placeId=115090,Bar,Nightlife,0.34
Jumeirah beach residence,attraction,http://tour-pedia.org/api/getPlaceDetails?id=115105,115105,25.079598599571,55.13658285141,Dubai,Mai Tai bar,11.0,4b914f0ff964a520ddb133e3,5.0,http://tour-pedia.org/api/getReviewsByPlaceId?placeId=115105,Bar,Nightlife,0.2
"Jumeirah Beach Residence, Dubai Marina",attraction,http://tour-pedia.org/api/getPlaceDetails?id=115193,115193,25.075574185662,55.131944106172,Dubai,The Hub Irish Bar at Sofitel Dubai,5.0,4ba12328f964a520699b37e3,4.0,http://tour-pedia.org/api/getReviewsByPlaceId?placeId=115193,Sports Bar,Nightlife,0.17
,attraction,http://tour-pedia.org/api/getPlaceDetails?id=115268,115268,25.159607983143,55.304005970356,Dubai,Bubble Lounge,1.0,4bae245cf964a52062893be3,5.0,http://tour-pedia.org/api/getReviewsByPlaceId?placeId=115268,Bar,Nightlife,0.52
Al Badia Golf Club,attraction,http://tour-pedia.org/api/getPlaceDetails?id=115382,115382,25.215424636961,55.363841056824,Dubai,Trent's Bar,1.0,4bc4566574a9a59340a3d5f6,5.0,http://tour-pedia.org/api/getReviewsByPlaceId?placeId=115382,Bar,Nightlife,0.62
"Regent Hotel, Khalifa Bin Zayed Rd",attraction,http://tour-pedia.org/api/getPlaceDetails?id=115393,115393,25.25293348011,55.303665811364,Dubai,Rock Bottom Cafe,17.0,4bc5e242424195212c29031d,6.0,http://tour-pedia.org/api/getReviewsByPlaceId?placeId=115393,Bar,Nightlife,0.28
Bonnington Jumeirah Lakes Towers,attraction,http://tour-pedia.org/api/getPlaceDetails?id=115396,115396,25.068010148187,55.141668319702,Dubai,Healey's Bar & Terrace [Official Listing],12.0,4bc71ed6af07a593c8877e2d,7.0,http://tour-pedia.org/api/getReviewsByPlaceId?placeId=115396,Cocktail Bar,Nightlife,0.37
P O Box 116945,attraction,http://tour-pedia.org/api/getPlaceDetails?id=115436,115436,25.24244337487,55.298245045744,Dubai,Karama Hotel Dubai,3.0,4bc8ef8b762beee15cb83d38,5.0,http://tour-pedia.org/api/getReviewsByPlaceId?placeId=115436,Hotel Bar,Nightlife,0.16
"Wafi, Oud Metha",attraction,http://tour-pedia.org/api/getPlaceDetails?id=115457,115457,25.230138817663,55.319981575012,Dubai,Vintage - Wine Bar,2.0,4bcabea5cc8cd13a624dbecf,10.0,http://tour-pedia.org/api/getReviewsByPlaceId?placeId=115457,Wine Bar,Nightlife,0.82
"The Address, Downtown Burj Dubai",attraction,http://tour-pedia.org/api/getPlaceDetails?id=115479,115479,25.194204142948,55.279199478208,Dubai,Neos,42.0,4bccff85fb84c9b6e97e213e,6.0,http://tour-pedia.org/api/getReviewsByPlaceId?placeId=115479,Bar,Nightlife,0.55
Imperial Hotel,attraction,http://tour-pedia.org/api/getPlaceDetails?id=115492,115492,25.256861463806,55.29290020182,Dubai,KrossRoads Bar,1.0,4bcf39f6462cb713cb46d607,10.0,http://tour-pedia.org/api/getReviewsByPlaceId?placeId=115492,Bar,Nightlife,0.0
Al Rolla Road,attraction,http://tour-pedia.org/api/getPlaceDetails?id=115496,115496,25.256800837413,55.287933572953,Dubai,Rolla Residence Dubai,1.0,4bcf44280ffdce721254b2c0,10.0,http://tour-pedia.org/api/getReviewsByPlaceId?placeId=115496,Karaoke Bar,Nightlife,0.44
Kempinski Hotel,attraction,http://tour-pedia.org/api/getPlaceDetails?id=115505,115505,25.118428741867,55.197154170934,Dubai,Mosaic,2.0,4bd07785a8b3a59368e5635f,8.0,http://tour-pedia.org/api/getReviewsByPlaceId?placeId=115505,Hookah Bar,Nightlife,0.67
Dubai Marina - Yacht Club,attraction,http://tour-pedia.org/api/getPlaceDetails?id=115615,115615,25.073191728645,55.135543726293,Dubai,Aquara,7.0,4bdc6ac8afe8c9b650514f85,6.0,http://tour-pedia.org/api/getReviewsByPlaceId?placeId=115615,Cocktail Bar,Nightlife,0.43
Radisson Blu Hotel,attraction,http://tour-pedia.org/api/getPlaceDetails?id=115722,115722,25.094133,55.156036,Dubai,ICON Bar & Lounge,20.0,4befe759d4f70f479242390f,7.0,http://tour-pedia.org/api/getReviewsByPlaceId?placeId=115722,Hotel Bar,Nightlife,0.42
Emirates Towers,attraction,http://tour-pedia.org/api/getPlaceDetails?id=115749,115749,25.217365923668,55.282173156738,Dubai,The Agency - Emirates Towers,8.0,4bf539adcad2c92801c19c99,8.0,http://tour-pedia.org/api/getReviewsByPlaceId?placeId=115749,Wine Bar,Nightlife,0.63
Ibn Battuta Mall,attraction,http://tour-pedia.org/api/getPlaceDetails?id=116126,116126,25.046035787991,55.121555636454,Dubai,N-Bar,2.0,4c46939c417b20a1f524dba9,5.0,http://tour-pedia.org/api/getReviewsByPlaceId?placeId=116126,Bar,Nightlife,0.33
"Inside Citymax Hotels, Al Barsha",attraction,http://tour-pedia.org/api/getPlaceDetails?id=116132,116132,25.115756259769,55.204131603241,Dubai,"MAXX Music Bar & Grill, Al Barsha",24.0,4c47da5ad012ef3ba00d1ca0,5.0,http://tour-pedia.org/api/getReviewsByPlaceId?placeId=116132,Bar,Nightlife,0.28
,attraction,http://tour-pedia.org/api/getPlaceDetails?id=116327,116327,25.159009479033,55.403854489327,Dubai,Valley Cafe International City,12.0,4c81600d51ada1cdab501210,6.0,http://tour-pedia.org/api/getReviewsByPlaceId?placeId=116327,Hookah Bar,Nightlife,0.32
,attraction,http://tour-pedia.org/api/getPlaceDetails?id=116423,116423,25.224566753022,55.4266833,Dubai,Al andalosia,3.0,4c95095494a0236a4d559212,8.0,http://tour-pedia.org/api/getReviewsByPlaceId?placeId=116423,Hookah Bar,Nightlife,0.57
Mövenpick Hotel Jumeirah Beach,attraction,http://tour-pedia.org/api/getPlaceDetails?id=116453,116453,25.080153750935,55.136411322147,Dubai,West Beach Bistro & Sports Lounge,5.0,4c9b8202d4b1b1f79680d935,6.0,http://tour-pedia.org/api/getReviewsByPlaceId?placeId=116453,Bar,Nightlife,0.73
Premiere Inn,attraction,http://tour-pedia.org/api/getPlaceDetails?id=116749,116749,25.008337621403,55.156681089023,Dubai,The Retreat,1.0,4cd2df9e83e0721e0a875997,10.0,http://tour-pedia.org/api/getReviewsByPlaceId?placeId=116749,Bar,Nightlife,0.72
Al Sufouh Road,attraction,http://tour-pedia.org/api/getPlaceDetails?id=116791,116791,25.097112974868,55.150380291948,Dubai,The Jetty Lounge,28.0,4cd9688d1891236a03383b0b,7.0,http://tour-pedia.org/api/getReviewsByPlaceId?placeId=116791,Cocktail Bar,Nightlife,0.47
,attraction,http://tour-pedia.org/api/getPlaceDetails?id=116814,116814,25.242446225818,55.298137065823,Dubai,Ratsky Karama,1.0,4cdc6be15aeda1cd098ac211,10.0,http://tour-pedia.org/api/getReviewsByPlaceId?placeId=116814,Bar,Nightlife,0.52
,attraction,http://tour-pedia.org/api/getPlaceDetails?id=116843,116843,25.141499772772,55.1902895968,Dubai,Club Eight,3.0,4ce2a5c800166ea842e14788,5.0,http://tour-pedia.org/api/getReviewsByPlaceId?placeId=116843,Hotel Bar,Nightlife,0.73
at Terminal 1,attraction,http://tour-pedia.org/api/getPlaceDetails?id=116862,116862,25.252985,55.354461,Dubai,Wings Bar,1.0,4ce5b7bcf1c6236ac2344ff0,8.0,http://tour-pedia.org/api/getReviewsByPlaceId?placeId=116862,Bar,Nightlife,0.49
,attraction,http://tour-pedia.org/api/getPlaceDetails?id=117074,117074,25.242422501203,55.297213843013,Dubai,Tantra The Club,1.0,4d05415237036dcb2d9915fb,8.0,http://tour-pedia.org/api/getReviewsByPlaceId?placeId=117074,Bar,Nightlife,0.53
"Park Regis Kris Kin Hotel, Dubai",attraction,http://tour-pedia.org/api/getPlaceDetails?id=117330,117330,25.249406719953,55.301484506187,Dubai,Club Se7en,1.0,4d30d478619f6ea81a0d3983,10.0,http://tour-pedia.org/api/getReviewsByPlaceId?placeId=117330,Bar,Nightlife,0.79
Country Club Hotel,attraction,http://tour-pedia.org/api/getPlaceDetails?id=117458,117458,25.249099138281,55.283026608586,Dubai,Player's Lounge,6.0,4d430b57f81e8cfaa6d5fa56,8.0,http://tour-pedia.org/api/getReviewsByPlaceId?placeId=117458,Sports Bar,Nightlife,0.53
Majestic Hotel Dubai,attraction,http://tour-pedia.org/api/getPlaceDetails?id=117483,117483,25.253806182243,55.293116148692,Dubai,Tambayan sa Kanto,2.0,4d4586dc019d5941d9e1ba8d,0.0,http://tour-pedia.org/api/getReviewsByPlaceId?placeId=117483,Karaoke Bar,Nightlife,-0.7
Manhattan Hotel,attraction,http://tour-pedia.org/api/getPlaceDetails?id=117580,117580,25.251501596416,55.290314280019,Dubai,Club Mint,2.0,4d5031b9c5ff6ea8a6319807,5.0,http://tour-pedia.org/api/getReviewsByPlaceId?placeId=117580,Hotel Bar,Nightlife,0.57
,attraction,http://tour-pedia.org/api/getPlaceDetails?id=117613,117613,25.269646745256,55.355131420484,Dubai,Dar Al Hai,2.0,4d5563fbcff7721e5537a9f5,10.0,http://tour-pedia.org/api/getReviewsByPlaceId?placeId=117613,Hookah Bar,Nightlife,0.66
Tecom,attraction,http://tour-pedia.org/api/getPlaceDetails?id=117624,117624,25.097855766446,55.179775409505,Dubai,Good Fellas,1.0,4d573b58ba5b224b03592514,5.0,http://tour-pedia.org/api/getReviewsByPlaceId?placeId=117624,Bar,Nightlife,0.8
,attraction,http://tour-pedia.org/api/getPlaceDetails?id=117631,117631,25.108504876653,55.20401929541,Dubai,Centre Circle,6.0,4d57f507de8f6dcb72970591,7.0,http://tour-pedia.org/api/getReviewsByPlaceId?placeId=117631,Sports Bar,Nightlife,0.46
karama,attraction,http://tour-pedia.org/api/getPlaceDetails?id=117632,117632,25.244727297075,55.299211472052,Dubai,Cowboys,1.0,4d57f74e8147f04ddda89c54,5.0,http://tour-pedia.org/api/getReviewsByPlaceId?placeId=117632,Bar,Nightlife,0.0
,attraction,http://tour-pedia.org/api/getPlaceDetails?id=117648,117648,25.250531740822,55.3016464824,Dubai,Club7 - Park Regis Hotel,1.0,4d5a98eff8ff236aeeced74a,10.0,http://tour-pedia.org/api/getReviewsByPlaceId?placeId=117648,Hotel Bar,Nightlife,0.64
Movenpick Deira,attraction,http://tour-pedia.org/api/getPlaceDetails?id=117718,117718,25.270499965232,55.329834967686,Dubai,Jigsaw Restaurant,1.0,4d649fb7375aa09067bf1474,10.0,http://tour-pedia.org/api/getReviewsByPlaceId?placeId=117718,Bar,Nightlife,0.64
,attraction,http://tour-pedia.org/api/getPlaceDetails?id=117729,117729,25.25244063572,55.283355890082,Dubai,Seafarer's Bar,1.0,4d669dde6d86224b46d39481,10.0,http://tour-pedia.org/api/getReviewsByPlaceId?placeId=117729,Bar,Nightlife,0.73
"Citymax Hotels, Kuwait Street",attraction,http://tour-pedia.org/api/getPlaceDetails?id=117754,117754,25.250906464328,55.29139995575,Dubai,"The Huddle Sports Bar & Grill, Bur Dubai",6.0,4d6a67af4c46370411bfafb3,8.0,http://tour-pedia.org/api/getReviewsByPlaceId?placeId=117754,Sports Bar,Nightlife,0.26
TECOM,attraction,http://tour-pedia.org/api/getPlaceDetails?id=117755,117755,25.098081724624,55.179257821355,Dubai,Goodfellas TECOM,5.0,4d6a70912acd6ea8e32e46c0,6.0,http://tour-pedia.org/api/getReviewsByPlaceId?placeId=117755,Bar,Nightlife,0.22
,attraction,http://tour-pedia.org/api/getPlaceDetails?id=117916,117916,25.250805134639,55.291960839216,Dubai,City Maxx,1.0,4d8266919b7ab1f7c9d15241,5.0,http://tour-pedia.org/api/getReviewsByPlaceId?placeId=117916,Bar,Nightlife,0.0
"Dubai Green Community,P.O. Box 63845 · Dubai, United Arab Emirates",attraction,http://tour-pedia.org/api/getPlaceDetails?id=117931,117931,25.003065398505,55.164332985878,Dubai,The Bar at Marriott Courtyard Dubai Green Community (Official Marriott),2.0,4d838fab40a7a35d7fa6f8bd,8.0,http://tour-pedia.org/api/getReviewsByPlaceId?placeId=117931,Bar,Nightlife,0.57
Park Regis - Kris Kin Hotel,attraction,http://tour-pedia.org/api/getPlaceDetails?id=117951,117951,25.249586346615,55.301581691878,Dubai,Grandstand Bar and Restaurant,2.0,4d86268940a7a35da3f52ebe,8.0,http://tour-pedia.org/api/getReviewsByPlaceId?placeId=117951,Sports Bar,Nightlife,0.61
"Jumeirah Beach Residence, Dubai Marina",attraction,http://tour-pedia.org/api/getPlaceDetails?id=118065,118065,25.075618913394,55.132035711385,Dubai,Infini Pool Lounge at Sofitel Dubai,5.0,4d94d2cb3048b1f72d383a64,5.0,http://tour-pedia.org/api/getReviewsByPlaceId?placeId=118065,Bar,Nightlife,0.83
Holiday Inn,attraction,http://tour-pedia.org/api/getPlaceDetails?id=118089,118089,25.116464,55.19374,Dubai,The Q,3.0,4d97335e942ba09385a9658c,9.0,http://tour-pedia.org/api/getReviewsByPlaceId?placeId=118089,Bar,Nightlife,0.47
Hilton Dubai Jumeirah Resort,attraction,http://tour-pedia.org/api/getPlaceDetails?id=118113,118113,25.078699744254,55.134190320969,Dubai,BiCE Sky Bar,3.0,4d9b5b14e086a35d7d7dcfad,7.0,http://tour-pedia.org/api/getReviewsByPlaceId?placeId=118113,Cocktail Bar,Nightlife,0.55
"The Address Hotel, Dubai Marina",attraction,http://tour-pedia.org/api/getPlaceDetails?id=118284,118284,25.079686344903,55.145998574792,Dubai,"Blends Lounge, The Address Dubai Marina",2.0,4db0963eec8ec3dfb1eb6ce7,3.0,http://tour-pedia.org/api/getReviewsByPlaceId?placeId=118284,Bar,Nightlife,0.34
,attraction,http://tour-pedia.org/api/getPlaceDetails?id=118472,118472,25.263825716233,55.32675106689,Dubai,Grand Central Hotel,2.0,4dcad947c65bebb82f42ef04,10.0,http://tour-pedia.org/api/getReviewsByPlaceId?placeId=118472,Hotel Bar,Nightlife,0.33
Imperial Suites Hotel,attraction,http://tour-pedia.org/api/getPlaceDetails?id=118484,118484,25.256584334147,55.293364488263,Dubai,Stayin' Alive,1.0,4dcd8483d164679b8ce87cda,10.0,http://tour-pedia.org/api/getReviewsByPlaceId?placeId=118484,Hotel Bar,Nightlife,0.01
Dubai Airport,attraction,http://tour-pedia.org/api/getPlaceDetails?id=118530,118530,25.252664901188,55.354699217489,Dubai,Pint 19,7.0,4dd3f5fc18384691b9b58b8f,6.0,http://tour-pedia.org/api/getReviewsByPlaceId?placeId=118530,Bar,Nightlife,0.4
Novotel Deira City Center,attraction,http://tour-pedia.org/api/getPlaceDetails?id=118629,118629,25.253543310103,55.332605711348,Dubai,Vertigo Bar,2.0,4de4f1298877bcb6867ec8bd,3.0,http://tour-pedia.org/api/getReviewsByPlaceId?placeId=118629,Bar,Nightlife,0.48
Millennium Airport Hotel,attraction,http://tour-pedia.org/api/getPlaceDetails?id=118632,118632,25.248364073939,55.343885421753,Dubai,Biggles Bar,9.0,4de529b1fa7651589f3f532c,8.0,http://tour-pedia.org/api/getReviewsByPlaceId?placeId=118632,Bar,Nightlife,0.58
The Sevens,attraction,http://tour-pedia.org/api/getPlaceDetails?id=118643,118643,24.995547745433,55.469070190758,Dubai,Players' Club,1.0,4de6840a1f6e9d90c7f515e9,5.0,http://tour-pedia.org/api/getReviewsByPlaceId?placeId=118643,Sports Bar,Nightlife,0.0
Golden Tulip Al Barsha,attraction,http://tour-pedia.org/api/getPlaceDetails?id=118750,118750,25.112603440912,55.190311165692,Dubai,The Lockers Room,5.0,4dfb1163d22d56d1ebadefdf,7.0,http://tour-pedia.org/api/getReviewsByPlaceId?placeId=118750,Sports Bar,Nightlife,0.61
,attraction,http://tour-pedia.org/api/getPlaceDetails?id=118762,118762,25.24323,55.358984,Dubai,The Retreat,2.0,4dfcc3c7d164848a03f6a4aa,8.0,http://tour-pedia.org/api/getReviewsByPlaceId?placeId=118762,Bar,Nightlife,0.83
Mövenpick Hotel Ibn Battuta Gate Hotel,attraction,http://tour-pedia.org/api/getPlaceDetails?id=118816,118816,25.042013326072,55.115742310569,Dubai,Moroc Lounge & Bar,5.0,4e07842b1f6e2110338d9219,9.0,http://tour-pedia.org/api/getReviewsByPlaceId?placeId=118816,Hookah Bar,Nightlife,0.41
Marco Polo Hotel,attraction,http://tour-pedia.org/api/getPlaceDetails?id=118853,118853,25.273988887414,55.319084758266,Dubai,Kitakits,7.0,4e0cb8211f6e9300e4e92bf2,4.0,http://tour-pedia.org/api/getReviewsByPlaceId?placeId=118853,Bar,Nightlife,0.41
Al Futtaim Mall,attraction,http://tour-pedia.org/api/getPlaceDetails?id=118862,118862,25.07818885,55.13453137,Dubai,Traders vic,2.0,4e0e1973e4cd27fc7d2c3127,3.0,http://tour-pedia.org/api/getReviewsByPlaceId?placeId=118862,Bar,Nightlife,0.62
,attraction,http://tour-pedia.org/api/getPlaceDetails?id=118882,118882,25.268730976205,55.328922208012,Dubai,Champions Sports Bar,1.0,4e109a641495c8d31bbf24fd,5.0,http://tour-pedia.org/api/getReviewsByPlaceId?placeId=118882,Bar,Nightlife,0.64
PO Box 454745,attraction,http://tour-pedia.org/api/getPlaceDetails?id=118919,118919,25.080332254966,55.145466327667,Dubai,Marinaview Hotel Apartments,3.0,4e177c0415202ba040b57382,7.0,http://tour-pedia.org/api/getReviewsByPlaceId?placeId=118919,Hotel Bar,Nightlife,0.59
,attraction,http://tour-pedia.org/api/getPlaceDetails?id=119086,119086,25.190952634087,55.277725889399,Dubai,Sports Bar (hotel Al Manzil),2.0,4e32bf3362e12985fd651cba,10.0,http://tour-pedia.org/api/getReviewsByPlaceId?placeId=119086,Bar,Nightlife,0.62
Al Barsha 1st,attraction,http://tour-pedia.org/api/getPlaceDetails?id=119212,119212,25.112336726505,55.190420150757,Dubai,Locker Room Sports Bar,4.0,4e465ff4091a6b84cc5b1650,5.0,http://tour-pedia.org/api/getReviewsByPlaceId?placeId=119212,Sports Bar,Nightlife,0.05
Marina,attraction,http://tour-pedia.org/api/getPlaceDetails?id=119215,119215,25.085675608987,55.141735644133,Dubai,The Underground Bar (Liverpool Fan Zone),2.0,4e468b331f6e29f10da6a484,10.0,http://tour-pedia.org/api/getReviewsByPlaceId?placeId=119215,Bar,Nightlife,0.41
,attraction,http://tour-pedia.org/api/getPlaceDetails?id=119240,119240,25.239287918002,55.306797484443,Dubai,Moon Mood Cafe,3.0,4e4c0caf52b1119aaa75a8df,5.0,http://tour-pedia.org/api/getReviewsByPlaceId?placeId=119240,Hookah Bar,Nightlife,0.5
,attraction,http://tour-pedia.org/api/getPlaceDetails?id=119255,119255,25.260890686914,55.284619047163,Dubai,Dar Al Diyafa,1.0,4e4d8920b0fb84443d43bffd,10.0,http://tour-pedia.org/api/getReviewsByPlaceId?placeId=119255,Hookah Bar,Nightlife,0.81
"Inside Citymax Hotels, Al Barsha",attraction,http://tour-pedia.org/api/getPlaceDetails?id=119390,119390,25.115892261955,55.204067230225,Dubai,"The Huddle Sports Bar & Grill, Al Barsha",5.0,4e5fb725e4cde8478f3264e6,8.0,http://tour-pedia.org/api/getReviewsByPlaceId?placeId=119390,Sports Bar,Nightlife,0.26
Trader's Vic,attraction,http://tour-pedia.org/api/getPlaceDetails?id=119471,119471,25.22069,55.281179,Dubai,Mai Tai Bar,5.0,4e68d95a483bc77630984d9d,2.0,http://tour-pedia.org/api/getReviewsByPlaceId?placeId=119471,Bar,Nightlife,-0.03
,attraction,http://tour-pedia.org/api/getPlaceDetails?id=119474,119474,25.13589144397,55.257233203469,Dubai,Irish Village,3.0,4e692006b0fb72b6ddf8bdb5,7.0,http://tour-pedia.org/api/getReviewsByPlaceId?placeId=119474,Bar,Nightlife,0.21
,attraction,http://tour-pedia.org/api/getPlaceDetails?id=119588,119588,25.038018154311,55.24460648285,Dubai,Private Party Palm Jumairah Underground,1.0,4e720665d1647c08d3f1172b,10.0,http://tour-pedia.org/api/getReviewsByPlaceId?placeId=119588,Dive Bar,Nightlife,0.68
Mall Of The Emirates,attraction,http://tour-pedia.org/api/getPlaceDetails?id=119615,119615,25.118272703102,55.19985593352,Dubai,Chocolate Bar,14.0,4e74546ffa760597007f37dc,6.0,http://tour-pedia.org/api/getReviewsByPlaceId?placeId=119615,Bar,Nightlife,0.09
,attraction,http://tour-pedia.org/api/getPlaceDetails?id=119675,119675,25.249253543446,55.348189420545,Dubai,Trader Vic's Madinat Jumeirah,1.0,4e78c653b61ce1c898afb964,10.0,http://tour-pedia.org/api/getReviewsByPlaceId?placeId=119675,Hookah Bar,Nightlife,0.43
Al Ghurair,attraction,http://tour-pedia.org/api/getPlaceDetails?id=119740,119740,25.268876347518,55.316977500916,Dubai,Al Ghurair Arjaan by Rotana,3.0,4e7f02fae5e876478d3c4867,8.0,http://tour-pedia.org/api/getReviewsByPlaceId?placeId=119740,Hotel Bar,Nightlife,0.56
,attraction,http://tour-pedia.org/api/getPlaceDetails?id=119811,119811,25.274890319494,55.325492694118,Dubai,Kramer,1.0,4e862e5893ad9dda891e4349,5.0,http://tour-pedia.org/api/getReviewsByPlaceId?placeId=119811,Cocktail Bar,Nightlife,0.0
Dubai Marine Yacht Club,attraction,http://tour-pedia.org/api/getPlaceDetails?id=119815,119815,25.069917613903,55.133803172426,Dubai,25 55 Sports Lounge,2.0,4e8730c16da199251348d51e,5.0,http://tour-pedia.org/api/getReviewsByPlaceId?placeId=119815,Bar,Nightlife,0.97
,attraction,http://tour-pedia.org/api/getPlaceDetails?id=119902,119902,25.244542148098,55.298444808954,Dubai,"Kovalam, The President Hotel",1.0,4e932901d22d95ed0d986be3,10.0,http://tour-pedia.org/api/getReviewsByPlaceId?placeId=119902,Hotel Bar,Nightlife,0.97
,attraction,http://tour-pedia.org/api/getPlaceDetails?id=119961,119961,25.078077585519,55.134848578225,Dubai,Executive Lounge @ Hilton,4.0,4e9a9d0c93ada5036d65728b,8.0,http://tour-pedia.org/api/getReviewsByPlaceId?placeId=119961,Hotel Bar,Nightlife,0.53
"Radisson Blu Downtown, Business Bay",attraction,http://tour-pedia.org/api/getPlaceDetails?id=120017,120017,25.194064991035,55.289261578314,Dubai,Infiniti,1.0,4ea1af804690104bb33d19b0,10.0,http://tour-pedia.org/api/getReviewsByPlaceId?placeId=120017,Bar,Nightlife,0.78
Al Maha desert resort and spa,attraction,http://tour-pedia.org/api/getPlaceDetails?id=120054,120054,24.823017,55.662545,Dubai,Lounge Bar @ Al Maha Resort,1.0,4ea5576e7ee52a35de16a64a,5.0,http://tour-pedia.org/api/getReviewsByPlaceId?placeId=120054,Hotel Bar,Nightlife,0.0
,attraction,http://tour-pedia.org/api/getPlaceDetails?id=120066,120066,25.263708414063,55.28710223041,Dubai,Sea View Hotel,1.0,4ea5c34ef7901bf0addfcb6d,5.0,http://tour-pedia.org/api/getReviewsByPlaceId?placeId=120066,Bar,Nightlife,0.0
,attraction,http://tour-pedia.org/api/getPlaceDetails?id=120072,120072,25.261709750115,55.313692964856,Dubai,Club Lounge Lobby Floor @ Sheraton,1.0,4ea6bebe4690ee446904a000,10.0,http://tour-pedia.org/api/getReviewsByPlaceId?placeId=120072,Hotel Bar,Nightlife,0.49
Traders Hotel,attraction,http://tour-pedia.org/api/getPlaceDetails?id=120246,120246,25.269838343336,55.33100698683,Dubai,88 Lounge,4.0,4eb9646bf790d87d0463c2f2,5.0,http://tour-pedia.org/api/getReviewsByPlaceId?placeId=120246,Bar,Nightlife,0.34
,attraction,http://tour-pedia.org/api/getPlaceDetails?id=120288,120288,25.194021046956,55.274914967488,Dubai,Fai Bar,4.0,4ebd47a06c257f09ade05320,8.0,http://tour-pedia.org/api/getReviewsByPlaceId?placeId=120288,Bar,Nightlife,0.68
,attraction,http://tour-pedia.org/api/getPlaceDetails?id=120347,120347,25.269991309635,55.331050195213,Dubai,Eighty Eight Trader's Hotel,1.0,4ec564f96da117f8e61ebb92,5.0,http://tour-pedia.org/api/getReviewsByPlaceId?placeId=120347,Hotel Bar,Nightlife,-0.68
Hilton Jumeirah Hotel Apartments,attraction,http://tour-pedia.org/api/getPlaceDetails?id=120414,120414,25.078268679907,55.13483780078,Dubai,Pure skylounge,3.0,4ecb3a1193adb4bd1ab22804,7.0,http://tour-pedia.org/api/getReviewsByPlaceId?placeId=120414,Cocktail Bar,Nightlife,0.06
Boutique 7,attraction,http://tour-pedia.org/api/getPlaceDetails?id=120459,120459,25.097871428967,55.172858988343,Dubai,1 Up,9.0,4ecfbf510e61efa33038dab0,7.0,http://tour-pedia.org/api/getReviewsByPlaceId?placeId=120459,Bar,Nightlife,0.39
Metropolitan Palace Hotel,attraction,http://tour-pedia.org/api/getPlaceDetails?id=120555,120555,25.261395131518,55.319805941636,Dubai,Malate Bar & Grill,1.0,4ed7c8af30f8318116c53c0c,0.0,http://tour-pedia.org/api/getReviewsByPlaceId?placeId=120555,Bar,Nightlife,0.39
,attraction,http://tour-pedia.org/api/getPlaceDetails?id=120562,120562,25.250870796962,55.292020223905,Dubai,Hookah Paani @ Dhow Palace Rooftop,3.0,4ed9010a8231efe38da8d189,3.0,http://tour-pedia.org/api/getReviewsByPlaceId?placeId=120562,Hookah Bar,Nightlife,0.31
Grand Hyatt Dubai,attraction,http://tour-pedia.org/api/getPlaceDetails?id=120564,120564,25.228286773837,55.32816608303,Dubai,The Living Room,1.0,4ed90d59722e1da30092e29f,10.0,http://tour-pedia.org/api/getReviewsByPlaceId?placeId=120564,Hotel Bar,Nightlife,0.57
,attraction,http://tour-pedia.org/api/getPlaceDetails?id=120638,120638,25.092463636884,55.324790605678,Dubai,Bandit Beightons Boudoir.,1.0,4ee289889a521fcbefc50215,5.0,http://tour-pedia.org/api/getReviewsByPlaceId?placeId=120638,Gay Bar,Nightlife,-0.05
,attraction,http://tour-pedia.org/api/getPlaceDetails?id=120717,120717,25.096862735117,55.179920981737,Dubai,"Good Fellas, Ramee International",1.0,4eecc6c993add02fcb52b920,0.0,http://tour-pedia.org/api/getReviewsByPlaceId?placeId=120717,Sports Bar,Nightlife,-0.66
Deira,attraction,http://tour-pedia.org/api/getPlaceDetails?id=120774,120774,25.273366755654,55.319967952201,Dubai,Dubai palm hotel,2.0,4ef394aab8f77e0f97161060,3.0,http://tour-pedia.org/api/getReviewsByPlaceId?placeId=120774,Hotel Bar,Nightlife,0.0
Oud Metha,attraction,http://tour-pedia.org/api/getPlaceDetails?id=120883,120883,25.240628519961,55.308109581229,Dubai,Nasimi Cafe,9.0,4efc42949911cd89d0ba7b37,5.0,http://tour-pedia.org/api/getReviewsByPlaceId?placeId=120883,Hookah Bar,Nightlife,-0.13
,attraction,http://tour-pedia.org/api/getPlaceDetails?id=120896,120896,24.98794,55.021112,Dubai,The Anchor,1.0,4efd91a56da1cd0356a60e34,0.0,http://tour-pedia.org/api/getReviewsByPlaceId?placeId=120896,Bar,Nightlife,-0.13
Madinat Jumeirah,attraction,http://tour-pedia.org/api/getPlaceDetails?id=120905,120905,25.135745346075,55.185582316269,Dubai,"Premium Leisure Club, Mina A''salam",1.0,4efe8ca7a69d45461c76ec33,0.0,http://tour-pedia.org/api/getReviewsByPlaceId?placeId=120905,Hotel Bar,Nightlife,-0.13
Ritz Carlton Dubai,attraction,http://tour-pedia.org/api/getPlaceDetails?id=120907,120907,25.083335101653,55.137634593419,Dubai,Club Lounge,1.0,4efecca09a520dfd656668a9,10.0,http://tour-pedia.org/api/getReviewsByPlaceId?placeId=120907,Hotel Bar,Nightlife,0.74
Babylos Hotel Marina,attraction,http://tour-pedia.org/api/getPlaceDetails?id=120985,120985,25.071053604831,55.135139569749,Dubai,Amadeus,1.0,4f076f75e4b0332118a10588,10.0,http://tour-pedia.org/api/getReviewsByPlaceId?placeId=120985,Hotel Bar,Nightlife,0.78
,attraction,http://tour-pedia.org/api/getPlaceDetails?id=121674,121674,25.232706,55.31201,Dubai,Shakeism Milkshakes,1.0,4f53c3bae4b063296e769116,5.0,http://tour-pedia.org/api/getReviewsByPlaceId?placeId=121674,Sports Bar,Nightlife,0.0
,attraction,http://tour-pedia.org/api/getPlaceDetails?id=121828,121828,25.127546156612,55.394433070156,Dubai,The Not So Sad Garden,1.0,4f6350d2e4b08b476e451957,10.0,http://tour-pedia.org/api/getReviewsByPlaceId?placeId=121828,Whisky Bar,Nightlife,0.48
,attraction,http://tour-pedia.org/api/getPlaceDetails?id=121840,121840,25.142248311883,55.19069940667,Dubai,My Room,1.0,4f647bd6e4b0c65cc448e784,10.0,http://tour-pedia.org/api/getReviewsByPlaceId?placeId=121840,Hookah Bar,Nightlife,0.83
,attraction,http://tour-pedia.org/api/getPlaceDetails?id=121898,121898,25.108735,55.204042,Dubai,Mezz,3.0,4f6a271de4b0ef08ee53cf73,3.0,http://tour-pedia.org/api/getReviewsByPlaceId?placeId=121898,Hookah Bar,Nightlife,0.25
,attraction,http://tour-pedia.org/api/getPlaceDetails?id=122109,122109,25.073407501652,55.135188068433,Dubai,YOTS Sports Lounge,1.0,4f81b75ee4b0fdf5028d9614,0.0,http://tour-pedia.org/api/getReviewsByPlaceId?placeId=122109,Sports Bar,Nightlife,0.25
Building 8 (former Dubai Bank Bldg.),attraction,http://tour-pedia.org/api/getPlaceDetails?id=122178,122178,25.226470144997,55.288181304932,Dubai,McGettigan's DWTC [Official Listing],6.0,4f896597e4b0183205b9063d,8.0,http://tour-pedia.org/api/getReviewsByPlaceId?placeId=122178,Bar,Nightlife,0.51
,attraction,http://tour-pedia.org/api/getPlaceDetails?id=122207,122207,25.28187043637,55.314940365822,Dubai,mistakes bar,1.0,4f8b4116e4b005979ff4d435,0.0,http://tour-pedia.org/api/getReviewsByPlaceId?placeId=122207,Hotel Bar,Nightlife,0.51
,attraction,http://tour-pedia.org/api/getPlaceDetails?id=122222,122222,25.278989495519,55.314027763348,Dubai,Fortune Pearl Hotel Café Lounge,1.0,4f8d0103e4b009dda3872bf7,10.0,http://tour-pedia.org/api/getReviewsByPlaceId?placeId=122222,Hotel Bar,Nightlife,0.62
"Meydan Racecourse, Al Meydan Road, Nad Al Sheba",attraction,http://tour-pedia.org/api/getPlaceDetails?id=122228,122228,25.16071918068,55.304427121441,Dubai,QUBE Sports Bar,6.0,4f8d9bc7e4b0b2abb45f6e23,8.0,http://tour-pedia.org/api/getReviewsByPlaceId?placeId=122228,Sports Bar,Nightlife,0.54
,attraction,http://tour-pedia.org/api/getPlaceDetails?id=122594,122594,25.135595335115,55.185711722581,Dubai,Shisha Terrace at Mina A'Salam,1.0,4fabf0a5e4b00ae4ab64ad28,0.0,http://tour-pedia.org/api/getReviewsByPlaceId?placeId=122594,Hookah Bar,Nightlife,0.54
Jbr,attraction,http://tour-pedia.org/api/getPlaceDetails?id=122706,122706,25.18902263666,55.257929345829,Dubai,underground at habtoor grand hotel,1.0,4fb7f5d0e4b0e3fefacc06c8,10.0,http://tour-pedia.org/api/getReviewsByPlaceId?placeId=122706,Bar,Nightlife,0.77
Ocean Heights,attraction,http://tour-pedia.org/api/getPlaceDetails?id=122708,122708,25.090052,55.148767,Dubai,Camarote Brasileirão @ Dubai,1.0,4fb81763e4b00d9e924819b7,5.0,http://tour-pedia.org/api/getReviewsByPlaceId?placeId=122708,Sports Bar,Nightlife,0.0
,attraction,http://tour-pedia.org/api/getPlaceDetails?id=122765,122765,25.268224,55.330219,Dubai,Wave Pool @ Bar JW Martiott Dubai,2.0,4fbe305de4b06386c7d59d1d,3.0,http://tour-pedia.org/api/getReviewsByPlaceId?placeId=122765,Bar,Nightlife,0.21
Madinat Jumeirah,attraction,http://tour-pedia.org/api/getPlaceDetails?id=122788,122788,25.133210596523,55.184924503875,Dubai,Belgian Beer Cafe,22.0,4fc0b1bae4b0bb0732268b03,7.0,http://tour-pedia.org/api/getReviewsByPlaceId?placeId=122788,Bar,Nightlife,0.3
,attraction,http://tour-pedia.org/api/getPlaceDetails?id=123062,123062,25.286128416748,55.35926987323,Dubai,valley cafe 3,5.0,4fd8c402e4b076367c2c9d1e,6.0,http://tour-pedia.org/api/getReviewsByPlaceId?placeId=123062,Hookah Bar,Nightlife,0.63
The Address Hotel,attraction,http://tour-pedia.org/api/getPlaceDetails?id=123087,123087,25.077752494865,55.140442255986,Dubai,Ruth's Chris Lounge,2.0,4fda3261e4b022c15e253776,10.0,http://tour-pedia.org/api/getReviewsByPlaceId?placeId=123087,Cocktail Bar,Nightlife,0.51
Premiere Inn,attraction,http://tour-pedia.org/api/getPlaceDetails?id=123145,123145,25.122722352433,55.374507131719,Dubai,The Retreat,1.0,4fe0cc8de4b0d973b025f4dc,5.0,http://tour-pedia.org/api/getReviewsByPlaceId?placeId=123145,Bar,Nightlife,0.51
Jumeirah Creekside Hotel,attraction,http://tour-pedia.org/api/getPlaceDetails?id=123240,123240,25.242789355456,55.340605178512,Dubai,CU-BA,4.0,4fec3ae9e4b017762fe3cd30,6.0,http://tour-pedia.org/api/getReviewsByPlaceId?placeId=123240,Bar,Nightlife,0.55
,attraction,http://tour-pedia.org/api/getPlaceDetails?id=123468,123468,25.088621139526,55.156200408936,Dubai,Obergine,1.0,5007eff9e4b0dde025183c27,10.0,http://tour-pedia.org/api/getReviewsByPlaceId?placeId=123468,Wine Bar,Nightlife,0.44
,attraction,http://tour-pedia.org/api/getPlaceDetails?id=123605,123605,25.212092369151,55.280046938129,Dubai,"The Sunken Garden @ Ritz Carlton Hotel, DIFC",1.0,50191f36e4b0e4c9c6d3d1f0,9.0,http://tour-pedia.org/api/getReviewsByPlaceId?placeId=123605,Hookah Bar,Nightlife,0.79
Chelsea Plaza Hotel,attraction,http://tour-pedia.org/api/getPlaceDetails?id=123989,123989,25.235468573503,55.279113113334,Dubai,Pegasus Resto Bar,1.0,504a15d9e4b0f60ad6af0928,10.0,http://tour-pedia.org/api/getReviewsByPlaceId?placeId=123989,Bar,Nightlife,0.77
Dubai International Airport Terminal 3,attraction,http://tour-pedia.org/api/getPlaceDetails?id=124007,124007,25.246962,55.364297,Dubai,Heineken Lounge,27.0,504bb563e4b043e9edb06a11,5.0,http://tour-pedia.org/api/getReviewsByPlaceId?placeId=124007,Bar,Nightlife,0.43
Deira City Centre,attraction,http://tour-pedia.org/api/getPlaceDetails?id=124056,124056,25.25054449206,55.334760795523,Dubai,La Fabrique,8.0,50522b99e4b029587edd8f3f,5.0,http://tour-pedia.org/api/getReviewsByPlaceId?placeId=124056,Bar,Nightlife,0.09
,attraction,http://tour-pedia.org/api/getPlaceDetails?id=124068,124068,25.095340032422,55.150601270115,Dubai,Shisha Terrace at One&Only Royal Mirage,2.0,50536359e4b0244ddd8746fd,5.0,http://tour-pedia.org/api/getReviewsByPlaceId?placeId=124068,Hookah Bar,Nightlife,0.78
,attraction,http://tour-pedia.org/api/getPlaceDetails?id=124139,124139,25.241229585182,55.366158727895,Dubai,EGHQ - Crew Waiting Area,2.0,505ce577e4b05434c0a7ffc2,3.0,http://tour-pedia.org/api/getReviewsByPlaceId?placeId=124139,Dive Bar,Nightlife,0.0
JW Marriott Marquis Dubai,attraction,http://tour-pedia.org/api/getPlaceDetails?id=124355,124355,25.18528890107,55.25776205529,Dubai,Vault JW Marriott Marquis Dubai Official Marriott,14.0,50716309e4b0dc1ac067b7ff,7.0,http://tour-pedia.org/api/getReviewsByPlaceId?placeId=124355,Bar,Nightlife,0.3
,attraction,http://tour-pedia.org/api/getPlaceDetails?id=124356,124356,25.185991969592,55.256984968021,Dubai,Velocity JW Marriott Marquis Dubai Official Marriott,12.0,507166b7e4b0ccacdbfcea85,8.0,http://tour-pedia.org/api/getReviewsByPlaceId?placeId=124356,Sports Bar,Nightlife,0.49
,attraction,http://tour-pedia.org/api/getPlaceDetails?id=124357,124357,25.185836823231,55.256833868534,Dubai,Kork JW Marriott Marquis Dubai Official Marriott,5.0,50716714e4b07b49cb880877,8.0,http://tour-pedia.org/api/getReviewsByPlaceId?placeId=124357,Wine Bar,Nightlife,0.64
,attraction,http://tour-pedia.org/api/getPlaceDetails?id=124371,124371,25.10866141493,55.204024688497,Dubai,"Centre Circle Sports Bar, Ramada Chelsea Hotel.",2.0,50740c2ee4b0d053c9978eb0,5.0,http://tour-pedia.org/api/getReviewsByPlaceId?placeId=124371,Sports Bar,Nightlife,0.15
Asiana Hotel,attraction,http://tour-pedia.org/api/getPlaceDetails?id=124607,124607,25.269577,55.325274,Dubai,Makati Pinoy's Laugh Factory,3.0,508a82d5e4b05789447c42cb,8.0,http://tour-pedia.org/api/getReviewsByPlaceId?placeId=124607,Karaoke Bar,Nightlife,0.67
,attraction,http://tour-pedia.org/api/getPlaceDetails?id=124691,124691,25.130464,55.184024,Dubai,The Room Of Love(Kolkin's Room),1.0,5093b409e4b03898aef5ceaf,0.0,http://tour-pedia.org/api/getReviewsByPlaceId?placeId=124691,Whisky Bar,Nightlife,0.67
Dubai,attraction,http://tour-pedia.org/api/getPlaceDetails?id=125013,125013,25.251476598384,55.356217340016,Dubai,McGettigan's,12.0,50b7d352498ea7a45bbf58a2,4.0,http://tour-pedia.org/api/getReviewsByPlaceId?placeId=125013,Bar,Nightlife,0.41
,attraction,http://tour-pedia.org/api/getPlaceDetails?id=125298,125298,25.227192909583,55.286697358698,Dubai,McGettigan's,9.0,50d354ade4b0e555fe9dc929,4.0,http://tour-pedia.org/api/getReviewsByPlaceId?placeId=125298,Bar,Nightlife,0.26
Ocean View Hotel,attraction,http://tour-pedia.org/api/getPlaceDetails?id=125358,125358,25.073431094667,55.130510766843,Dubai,Girders,5.0,50db00a2e4b0bc5a74d32c2b,5.0,http://tour-pedia.org/api/getReviewsByPlaceId?placeId=125358,Bar,Nightlife,0.2
"Oud Metha, Karama",attraction,http://tour-pedia.org/api/getPlaceDetails?id=125402,125402,25.239766130613,55.307321548462,Dubai,Hubbly Bubbly Coffee Shop,15.0,50deee5de4b0748c6ed6bc1e,8.0,http://tour-pedia.org/api/getReviewsByPlaceId?placeId=125402,Hookah Bar,Nightlife,0.68
,attraction,http://tour-pedia.org/api/getPlaceDetails?id=125451,125451,25.256914129205,55.292797627245,Dubai,Knight's Rider,1.0,50e3427fe4b0869e714387ed,5.0,http://tour-pedia.org/api/getReviewsByPlaceId?placeId=125451,Bar,Nightlife,0.0
Elite 1,attraction,http://tour-pedia.org/api/getPlaceDetails?id=125676,125676,25.04294971599,55.21708774117,Dubai,Gs-pot,1.0,50fa9531e4b022d514d98057,10.0,http://tour-pedia.org/api/getReviewsByPlaceId?placeId=125676,Cocktail Bar,Nightlife,0.66
,attraction,http://tour-pedia.org/api/getPlaceDetails?id=125773,125773,25.224038,55.282349,Dubai,51st Floor Bar Radisson Royal hotel,2.0,51041d7ce4b01719b3835d80,10.0,http://tour-pedia.org/api/getReviewsByPlaceId?placeId=125773,Bar,Nightlife,0.76
,attraction,http://tour-pedia.org/api/getPlaceDetails?id=126549,126549,25.108501434326,55.204223632812,Dubai,mezz Ramada Chelsea dubai,1.0,514a2f39e4b095673949c84d,0.0,http://tour-pedia.org/api/getReviewsByPlaceId?placeId=126549,Bar,Nightlife,0.76
Dubai Airport,attraction,http://tour-pedia.org/api/getPlaceDetails?id=126620,126620,25.24391,55.370312,Dubai,Heineken Bar,6.0,515008e5e4b05b70d0a458a9,4.0,http://tour-pedia.org/api/getReviewsByPlaceId?placeId=126620,Bar,Nightlife,0.4
,attraction,http://tour-pedia.org/api/getPlaceDetails?id=126794,126794,25.242807,55.341112,Dubai,Nomad Shisha Terrace,8.0,515f1049498ee174bc60f9d2,6.0,http://tour-pedia.org/api/getReviewsByPlaceId?placeId=126794,Hookah Bar,Nightlife,0.46
Ramada Jumeirah Hotel,attraction,http://tour-pedia.org/api/getPlaceDetails?id=126840,126840,25.240114087635,55.274940713443,Dubai,The Docks,2.0,51642aaee4b02cfd24eef43e,3.0,http://tour-pedia.org/api/getReviewsByPlaceId?placeId=126840,Bar,Nightlife,-0.02
,attraction,http://tour-pedia.org/api/getPlaceDetails?id=127054,127054,25.031170976454,55.217821315948,Dubai,261,1.0,517a6fbbe4b018f2c50fe3a4,10.0,http://tour-pedia.org/api/getReviewsByPlaceId?placeId=127054,Sports Bar,Nightlife,0.7
Souk Al Bahar,attraction,http://tour-pedia.org/api/getPlaceDetails?id=127636,127636,25.194699453212,55.276559990835,Dubai,Kanpai,6.0,51bb67e3498e97d5284fb476,8.0,http://tour-pedia.org/api/getReviewsByPlaceId?placeId=127636,Cocktail Bar,Nightlife,0.47
,attraction,http://tour-pedia.org/api/getPlaceDetails?id=127642,127642,25.209452831307,55.275156615337,Dubai,Shisha Terrace at Emirate Grand Hotel,1.0,51bcb7b7498e241648abe5a2,10.0,http://tour-pedia.org/api/getReviewsByPlaceId?placeId=127642,Hookah Bar,Nightlife,0.75
@ The Oberoi Hotel,attraction,http://tour-pedia.org/api/getPlaceDetails?id=127654,127654,25.149128175221,55.249187501783,Dubai,Lobby bar,1.0,51bf2fac498eda3f1f2fc74e,0.0,http://tour-pedia.org/api/getReviewsByPlaceId?placeId=127654,Bar,Nightlife,0.75
,attraction,http://tour-pedia.org/api/getPlaceDetails?id=127759,127759,25.078282370236,55.134853966947,Dubai,Pure Sky Lounge @Hilton JBR,1.0,51cca8e7498ed3d7185f362f,0.0,http://tour-pedia.org/api/getReviewsByPlaceId?placeId=127759,Bar,Nightlife,0.75
Al Muteena Road,attraction,http://tour-pedia.org/api/getPlaceDetails?id=127798,127798,25.273375848884,55.319157902412,Dubai,Alleqa Café,2.0,51d1af8e498e6282311b5a5e,8.0,http://tour-pedia.org/api/getReviewsByPlaceId?placeId=127798,Hookah Bar,Nightlife,0.67
Exit 7,attraction,http://tour-pedia.org/api/getPlaceDetails?id=127985,127985,25.171119689941,55.324066162109,Dubai,sh8t al6rb,1.0,51e9a7d6498e98fd73169814,0.0,http://tour-pedia.org/api/getReviewsByPlaceId?placeId=127985,Hookah Bar,Nightlife,0.67
,attraction,http://tour-pedia.org/api/getPlaceDetails?id=128075,128075,25.171791911011,55.408038510256,Dubai,Al Mashrabia,1.0,51f55c4b498e54247854924f,10.0,http://tour-pedia.org/api/getReviewsByPlaceId?placeId=128075,Hookah Bar,Nightlife,0.66
,attraction,http://tour-pedia.org/api/getPlaceDetails?id=128123,128123,25.243131715701,55.340129835029,Dubai,Hawaa Al Wedian,1.0,51faccb0498e8f22998aacec,0.0,http://tour-pedia.org/api/getReviewsByPlaceId?placeId=128123,Hookah Bar,Nightlife,0.66
"Boutique 7 Hotel & Suites, TECOM",attraction,http://tour-pedia.org/api/getPlaceDetails?id=128150,128150,25.098502183982,55.15602350235,Dubai,1Up Champions Bar,2.0,51fcf4d47dd2bcd9ed1b719d,5.0,http://tour-pedia.org/api/getReviewsByPlaceId?placeId=128150,Sports Bar,Nightlife,0.53
Jumeirah 1,attraction,http://tour-pedia.org/api/getPlaceDetails?id=128151,128151,25.232197972515,55.26720638503,Dubai,Tt eSports Billiards & Cafe Dubai,1.0,51fd0ae4498ed0b6a88a7dea,5.0,http://tour-pedia.org/api/getReviewsByPlaceId?placeId=128151,Sports Bar,Nightlife,0.66
International City,attraction,http://tour-pedia.org/api/getPlaceDetails?id=128169,128169,25.173109237874,55.408416919998,Dubai,AL Naya النايا,1.0,51fe9c05498efb75d3138bd8,10.0,http://tour-pedia.org/api/getReviewsByPlaceId?placeId=128169,Hookah Bar,Nightlife,0.83
,attraction,http://tour-pedia.org/api/getPlaceDetails?id=128240,128240,25.079487118947,55.133921722954,Dubai,Axis Bar at Hilton JBR,2.0,52065d9d11d2fe447f751bf3,5.0,http://tour-pedia.org/api/getReviewsByPlaceId?placeId=128240,Hotel Bar,Nightlife,0.91
,attraction,http://tour-pedia.org/api/getPlaceDetails?id=128277,128277,25.155516784864,55.300237299525,Dubai,Meydan Shisha Lounge,1.0,520a509311d2c0296fb3384e,0.0,http://tour-pedia.org/api/getReviewsByPlaceId?placeId=128277,Hookah Bar,Nightlife,0.91
,attraction,http://tour-pedia.org/api/getPlaceDetails?id=128308,128308,25.097886250094,55.179387218099,Dubai,Rockies,1.0,520d379011d2d22df7f6e27a,10.0,http://tour-pedia.org/api/getReviewsByPlaceId?placeId=128308,Dive Bar,Nightlife,0.62
,attraction,http://tour-pedia.org/api/getPlaceDetails?id=128636,128636,25.257354939734,55.321717685644,Dubai,Los Angles cafe,1.0,522cf59d11d2348a3452adba,10.0,http://tour-pedia.org/api/getReviewsByPlaceId?placeId=128636,Hookah Bar,Nightlife,0.67
,attraction,http://tour-pedia.org/api/getPlaceDetails?id=128872,128872,25.226441102722,55.283123773487,Dubai,Purobeach,5.0,52447ca6498ec3477299eb32,7.0,http://tour-pedia.org/api/getReviewsByPlaceId?placeId=128872,Bar,Nightlife,0.75
,attraction,http://tour-pedia.org/api/getPlaceDetails?id=128951,128951,25.237186837341,55.305447611432,Dubai,Ceebee Cafe & Restaurant,1.0,524c20dd11d2de0f971f947a,10.0,http://tour-pedia.org/api/getReviewsByPlaceId?placeId=128951,Hookah Bar,Nightlife,0.84
Radisson Blu Downtown Dubai,attraction,http://tour-pedia.org/api/getPlaceDetails?id=128992,128992,25.194056307685,55.289272375189,Dubai,La Terasse,1.0,524f302211d2484f4100426d,0.0,http://tour-pedia.org/api/getReviewsByPlaceId?placeId=128992,Cocktail Bar,Nightlife,0.84
,attraction,http://tour-pedia.org/api/getPlaceDetails?id=120447,120447,25.04074871961,55.230185152207,Dubai,Volvo's Place,3.0,4ece76e930f81894ac1a8d4e,7.0,http://tour-pedia.org/api/getReviewsByPlaceId?placeId=120447,Beer Garden,Nightlife,0.84
,attraction,http://tour-pedia.org/api/getPlaceDetails?id=127037,127037,25.054518229641,55.255355655704,Dubai,Buckingham Palace,1.0,51793899e4b09b33ec043528,10.0,http://tour-pedia.org/api/getReviewsByPlaceId?placeId=127037,Beer Garden,Nightlife,0.0
,attraction,http://tour-pedia.org/api/getPlaceDetails?id=127559,127559,25.255747131319,55.295351230564,Dubai,Lucien Bar,2.0,51b22813498eea3f7a98393c,9.0,http://tour-pedia.org/api/getReviewsByPlaceId?placeId=127559,Beer Garden,Nightlife,0.6
Dubai Marine Beach Resort & Spa,attraction,http://tour-pedia.org/api/getPlaceDetails?id=114497,114497,25.234141597463,55.262559645294,Dubai,Boudoir,17.0,4b0587ecf964a52033a722e3,6.0,http://tour-pedia.org/api/getReviewsByPlaceId?placeId=114497,Nightclub,Nightlife,0.41
"Al Nasser Square, PO Box 55808",attraction,http://tour-pedia.org/api/getPlaceDetails?id=114587,114587,25.265601231676,55.31386036394,Dubai,Garage Club & Discotheque,4.0,4b0587eef964a520d9a722e3,9.0,http://tour-pedia.org/api/getReviewsByPlaceId?placeId=114587,Nightclub,Nightlife,0.77
"Karama, Bur Dubai",attraction,http://tour-pedia.org/api/getPlaceDetails?id=114613,114613,25.244542148098,55.298952317567,Dubai,Maharlika Cafe,3.0,4b0587eff964a520dea722e3,3.0,http://tour-pedia.org/api/getReviewsByPlaceId?placeId=114613,Nightclub,Nightlife,0.24
"Al Mina Road, PO Box 52700",attraction,http://tour-pedia.org/api/getPlaceDetails?id=114616,114616,25.252268186963,55.283355890082,Dubai,Marine's Club,5.0,4b0587eff964a520e1a722e3,9.0,http://tour-pedia.org/api/getReviewsByPlaceId?placeId=114616,Nightclub,Nightlife,0.52
"Abu Hail Road, Deira",attraction,http://tour-pedia.org/api/getPlaceDetails?id=114617,114617,25.276188,55.349021,Dubai,Voodoo,1.0,4b0587eff964a520e7a722e3,5.0,http://tour-pedia.org/api/getReviewsByPlaceId?placeId=114617,Nightclub,Nightlife,0.0
Sheikh Zayed Road,attraction,http://tour-pedia.org/api/getPlaceDetails?id=114620,114620,25.22607221353,55.284351110458,Dubai,The 400 Club,11.0,4b0587eff964a520eba722e3,6.0,http://tour-pedia.org/api/getReviewsByPlaceId?placeId=114620,Nightclub,Nightlife,0.36
Mall of the Emirates,attraction,http://tour-pedia.org/api/getPlaceDetails?id=114882,114882,25.117586838864,55.199462258218,Dubai,Dubai Community Theatre & Art Centre,3.0,4b61ba78f964a520111f2ae3,8.0,http://tour-pedia.org/api/getReviewsByPlaceId?placeId=114882,Comedy Club,Nightlife,0.23
Royal Ascot Hotel,attraction,http://tour-pedia.org/api/getPlaceDetails?id=114919,114919,25.259134905039,55.291035175323,Dubai,Elegante Club,7.0,4b6a0966f964a5204cc32be3,6.0,http://tour-pedia.org/api/getReviewsByPlaceId?placeId=114919,Nightclub,Nightlife,0.27
,attraction,http://tour-pedia.org/api/getPlaceDetails?id=115200,115200,25.234294521051,55.262386949,Dubai,Serai,2.0,4ba2ac78f964a520d80e38e3,8.0,http://tour-pedia.org/api/getReviewsByPlaceId?placeId=115200,Nightclub,Nightlife,0.42
The Address Hotel,attraction,http://tour-pedia.org/api/getPlaceDetails?id=115586,115586,25.215500342711,55.274962303608,Dubai,Blends ( Mixed Company ),1.0,4bd9ceecd2cbc9282ffad1ad,10.0,http://tour-pedia.org/api/getReviewsByPlaceId?placeId=115586,Nightclub,Nightlife,0.51
"Le Meridian Hotel, Al Garhoud",attraction,http://tour-pedia.org/api/getPlaceDetails?id=115652,115652,25.247490721452,55.346374511719,Dubai,Alpha Club,1.0,4be31c4121d5a59356381811,5.0,http://tour-pedia.org/api/getReviewsByPlaceId?placeId=115652,Nightclub,Nightlife,0.0
Golden Tulip Hotel,attraction,http://tour-pedia.org/api/getPlaceDetails?id=116136,116136,25.113236235997,55.190257243473,Dubai,Catwalk,5.0,4c48a37f19fde21ead560c76,5.0,http://tour-pedia.org/api/getReviewsByPlaceId?placeId=116136,Nightclub,Nightlife,-0.03
,attraction,http://tour-pedia.org/api/getPlaceDetails?id=116260,116260,25.260508856317,55.33487962378,Dubai,Orchestra,1.0,4c697977c946e21ebb42ea8e,10.0,http://tour-pedia.org/api/getReviewsByPlaceId?placeId=116260,Comedy Club,Nightlife,-0.34
@ the Movenpick Bur Dubai,attraction,http://tour-pedia.org/api/getPlaceDetails?id=117035,117035,25.233914231993,55.31050164435,Dubai,Pulse the Nightclub,1.0,4cffc415f1605481e2ba9aea,0.0,http://tour-pedia.org/api/getReviewsByPlaceId?placeId=117035,Nightclub,Nightlife,0.4
IBN Battuta Gate Hotel,attraction,http://tour-pedia.org/api/getPlaceDetails?id=117448,117448,25.121612066508,55.199769648368,Dubai,Diablo,2.0,4d41640d1bd2a143a7c9fc7c,0.0,http://tour-pedia.org/api/getReviewsByPlaceId?placeId=117448,Nightclub,Nightlife,0.4
Movenpick Hotel,attraction,http://tour-pedia.org/api/getPlaceDetails?id=117517,117517,25.234431951769,55.311910994711,Dubai,Pulse,7.0,4d49be725241236aa4157904,8.0,http://tour-pedia.org/api/getReviewsByPlaceId?placeId=117517,Nightclub,Nightlife,0.33
IBN Batuta Mall,attraction,http://tour-pedia.org/api/getPlaceDetails?id=117537,117537,25.041499179878,55.115413672865,Dubai,Diablo Club,4.0,4d4b0de45a546dcbcef964c5,4.0,http://tour-pedia.org/api/getReviewsByPlaceId?placeId=117537,Nightclub,Nightlife,0.0
Dhow Palace Hotel Underground,attraction,http://tour-pedia.org/api/getPlaceDetails?id=117734,117734,25.214252795648,55.281698699246,Dubai,Club Submarine,1.0,4d67ea9fa800721e083b15b8,10.0,http://tour-pedia.org/api/getReviewsByPlaceId?placeId=117734,Nightclub,Nightlife,0.89
Sh. Zayed Road,attraction,http://tour-pedia.org/api/getPlaceDetails?id=117775,117775,25.171246086321,55.252619379063,Dubai,Cavali Club in Fairmont Hotel,6.0,4d6e9f2524b56ea8d4ca02fc,4.0,http://tour-pedia.org/api/getReviewsByPlaceId?placeId=117775,Nightclub,Nightlife,0.54
Hyatt Regency Hotel,attraction,http://tour-pedia.org/api/getPlaceDetails?id=117995,117995,25.276705694065,55.305037254219,Dubai,The Premier,3.0,4d8ba29437c6a1435facae0c,3.0,http://tour-pedia.org/api/getReviewsByPlaceId?placeId=117995,Nightclub,Nightlife,-0.21
Airport Road,attraction,http://tour-pedia.org/api/getPlaceDetails?id=118283,118283,25.247523822705,55.346530986117,Dubai,Le Meridian - Warehouses,2.0,4db07b47f7b1bd003ac9b2df,3.0,http://tour-pedia.org/api/getReviewsByPlaceId?placeId=118283,Nightclub,Nightlife,0.34
"Asiana Hotel, Deira",attraction,http://tour-pedia.org/api/getPlaceDetails?id=118304,118304,25.269637770531,55.325238861486,Dubai,Boracay,10.0,4db2fe361e7248d13581fc91,6.0,http://tour-pedia.org/api/getReviewsByPlaceId?placeId=118304,Nightclub,Nightlife,0.63
Madinat Jumeira,attraction,http://tour-pedia.org/api/getPlaceDetails?id=118357,118357,25.13376,55.186624,Dubai,Rooftop Lounge,1.0,4dbb23b00cb691071c82cbf9,5.0,http://tour-pedia.org/api/getReviewsByPlaceId?placeId=118357,Nightclub,Nightlife,0.0
,attraction,http://tour-pedia.org/api/getPlaceDetails?id=118473,118473,25.184040410332,55.25390367024,Dubai,I2,1.0,4dcb0bfe7d8b84bcd54be37b,0.0,http://tour-pedia.org/api/getReviewsByPlaceId?placeId=118473,Nightclub,Nightlife,0.16
The Address Dubai Mall Hotel,attraction,http://tour-pedia.org/api/getPlaceDetails?id=118532,118532,25.199650534431,55.277570486069,Dubai,Republique,24.0,4dd404501fc74f570dd00b65,7.0,http://tour-pedia.org/api/getReviewsByPlaceId?placeId=118532,Nightclub,Nightlife,0.38
Grand Central Hotel,attraction,http://tour-pedia.org/api/getPlaceDetails?id=118708,118708,25.263694191221,55.327053511144,Dubai,Metro Manila,2.0,4df26693fa76abc3d868f8a4,5.0,http://tour-pedia.org/api/getReviewsByPlaceId?placeId=118708,Rock Club,Nightlife,0.68
Dxb,attraction,http://tour-pedia.org/api/getPlaceDetails?id=119262,119262,25.206388817156,55.470586,Dubai,Wega desert,1.0,4e4ebad0c65bb313ba7bdae6,10.0,http://tour-pedia.org/api/getReviewsByPlaceId?placeId=119262,Strip Club,Nightlife,0.49
Atlanis,attraction,http://tour-pedia.org/api/getPlaceDetails?id=119660,119660,25.228904,55.262381,Dubai,N' Dulge,2.0,4e77a2d32271ffa4e7e65277,3.0,http://tour-pedia.org/api/getReviewsByPlaceId?placeId=119660,Nightclub,Nightlife,0.31
,attraction,http://tour-pedia.org/api/getPlaceDetails?id=119708,119708,25.199905873198,55.275637,Dubai,"Crystal, Raffles Hotel, Wafi",2.0,4e7ba144d22d7e7e8b0db2cc,6.0,http://tour-pedia.org/api/getReviewsByPlaceId?placeId=119708,Nightclub,Nightlife,0.67
Movenpick Hotel,attraction,http://tour-pedia.org/api/getPlaceDetails?id=119819,119819,25.234239651238,55.312396982925,Dubai,Fakhruddin Restaurant,1.0,4e8781be5c5cfd1dcc6d7f30,0.0,http://tour-pedia.org/api/getReviewsByPlaceId?placeId=119819,Nightclub,Nightlife,-0.73
Byblos Hotel,attraction,http://tour-pedia.org/api/getPlaceDetails?id=119930,119930,25.097218958426,55.173111701587,Dubai,Humilion Night Club,1.0,4e9752d6d22dc0733185db1e,10.0,http://tour-pedia.org/api/getReviewsByPlaceId?placeId=119930,Nightclub,Nightlife,0.64
"Lobby Level, Desert Palm Hotel, Al Aweer Road (E 44 Road)",attraction,http://tour-pedia.org/api/getPlaceDetails?id=119985,119985,25.099819114964,55.179418211786,Dubai,Rare Restaurant and Steak House,8.0,4e9dcf9382310f9e5fa4e140,5.0,http://tour-pedia.org/api/getReviewsByPlaceId?placeId=119985,Nightclub,Nightlife,0.29
,attraction,http://tour-pedia.org/api/getPlaceDetails?id=120513,120513,25.223181753463,55.285369392822,Dubai,Armani Club,1.0,4ed40737cc219860fba64717,5.0,http://tour-pedia.org/api/getReviewsByPlaceId?placeId=120513,Nightclub,Nightlife,0.0
"2707 Links East Tower, The Links, The Greens",attraction,http://tour-pedia.org/api/getPlaceDetails?id=120595,120595,25.090612685246,55.169874429703,Dubai,2707 East,2.0,4eddb73d0cd6fe9493d1fab5,5.0,http://tour-pedia.org/api/getReviewsByPlaceId?placeId=120595,Jazz Club,Nightlife,0.42
Royal Ascot Hotel,attraction,http://tour-pedia.org/api/getPlaceDetails?id=120688,120688,25.259133818592,55.291280617508,Dubai,Velvet Underground,6.0,4eea404130f8b39981e176fb,6.0,http://tour-pedia.org/api/getReviewsByPlaceId?placeId=120688,Nightclub,Nightlife,0.41
,attraction,http://tour-pedia.org/api/getPlaceDetails?id=120727,120727,25.062488390859,55.19178325539,Dubai,Club Springsfield,1.0,4eedeb87f9ab8c5a0230b855,5.0,http://tour-pedia.org/api/getReviewsByPlaceId?placeId=120727,Nightclub,Nightlife,0.0
,attraction,http://tour-pedia.org/api/getPlaceDetails?id=120857,120857,25.235667192489,55.324628586078,Dubai,Roberto Cavali Club (Dubai)',1.0,4efa358ad3e354f0bf954ca9,10.0,http://tour-pedia.org/api/getReviewsByPlaceId?placeId=120857,Nightclub,Nightlife,0.93
,attraction,http://tour-pedia.org/api/getPlaceDetails?id=120869,120869,25.067581676082,55.308055585083,Dubai,الميدان بطولة فزاع لليوله,1.0,4efb1a53b63446a50bf44481,0.0,http://tour-pedia.org/api/getReviewsByPlaceId?placeId=120869,Nightclub,Nightlife,0.93
JLT,attraction,http://tour-pedia.org/api/getPlaceDetails?id=121224,121224,25.067661549938,55.14167097426,Dubai,My Bed,1.0,4f22e51ce4b0fd183633792c,5.0,http://tour-pedia.org/api/getReviewsByPlaceId?placeId=121224,Strip Club,Nightlife,0.93
,attraction,http://tour-pedia.org/api/getPlaceDetails?id=121484,121484,25.241929416823,55.275399505615,Dubai,Capitol Russian Club/CZAR,3.0,4f4171d5e4b0e5bc13771cf3,3.0,http://tour-pedia.org/api/getReviewsByPlaceId?placeId=121484,Nightclub,Nightlife,0.28
,attraction,http://tour-pedia.org/api/getPlaceDetails?id=121626,121626,25.195789014227,55.275248373806,Dubai,Armani Club Dubai,1.0,4f4ff178e4b01fd34e804b3b,2.0,http://tour-pedia.org/api/getReviewsByPlaceId?placeId=121626,Nightclub,Nightlife,0.44
Al Badia Golf Club,attraction,http://tour-pedia.org/api/getPlaceDetails?id=121653,121653,25.215888671281,55.363289656072,Dubai,The Jazz Club @ Al Badia Golf Club by InterContinental Dubai,1.0,4f520929e4b0bf6b5ca581b7,10.0,http://tour-pedia.org/api/getReviewsByPlaceId?placeId=121653,Jazz Club,Nightlife,0.87
Al Qouz,attraction,http://tour-pedia.org/api/getPlaceDetails?id=122414,122414,25.128230835269,55.249214481416,Dubai,C1-37,2.0,4f9c4994e4b0d296c76f8460,0.0,http://tour-pedia.org/api/getReviewsByPlaceId?placeId=122414,Nightclub,Nightlife,0.87
Grand Excelsior Hotel,attraction,http://tour-pedia.org/api/getPlaceDetails?id=123066,123066,25.111820138198,55.203032366198,Dubai,ClubSilk,2.0,4fd8e461e4b03a2be32f6dbb,3.0,http://tour-pedia.org/api/getReviewsByPlaceId?placeId=123066,Nightclub,Nightlife,0.0
Bur Dubai,attraction,http://tour-pedia.org/api/getPlaceDetails?id=124071,124071,25.25547332512,55.28558532084,Dubai,Mansion,1.0,50538918e4b0e7ceb6146ccf,0.0,http://tour-pedia.org/api/getReviewsByPlaceId?placeId=124071,Nightclub,Nightlife,0.0
,attraction,http://tour-pedia.org/api/getPlaceDetails?id=124280,124280,25.218228892967,55.388276996966,Dubai,My room,1.0,506b6fec498e3642a5603336,5.0,http://tour-pedia.org/api/getReviewsByPlaceId?placeId=124280,Strip Club,Nightlife,-0.66
,attraction,http://tour-pedia.org/api/getPlaceDetails?id=124642,124642,25.100734743305,55.17148359302,Dubai,CLUB WEST DUBAI,2.0,508d5ba7e4b0772b59662634,10.0,http://tour-pedia.org/api/getReviewsByPlaceId?placeId=124642,Nightclub,Nightlife,0.82
Ibn Battuta Gate Hotel,attraction,http://tour-pedia.org/api/getPlaceDetails?id=124672,124672,25.041677365254,55.11533286051,Dubai,Cash Club,1.0,5091a44ce4b05195b029a085,0.0,http://tour-pedia.org/api/getReviewsByPlaceId?placeId=124672,Nightclub,Nightlife,0.26
Dubai,attraction,http://tour-pedia.org/api/getPlaceDetails?id=125086,125086,25.229978911466,55.287253383004,Dubai,Amika nightclub,2.0,50bd2cd7e4b0367988f0bfe4,6.0,http://tour-pedia.org/api/getReviewsByPlaceId?placeId=125086,Nightclub,Nightlife,0.09
Montreal hotel,attraction,http://tour-pedia.org/api/getPlaceDetails?id=125975,125975,25.272123336792,55.315906524658,Dubai,Buzz Club,1.0,5117ab78e4b08e47726525a2,0.0,http://tour-pedia.org/api/getReviewsByPlaceId?placeId=125975,Nightclub,Nightlife,-0.66
,attraction,http://tour-pedia.org/api/getPlaceDetails?id=126274,126274,25.277918652256,55.327258741775,Dubai,Kitakits Bar Marco Polo Hotel,1.0,51323de6e4b01a0b53bde4d4,8.0,http://tour-pedia.org/api/getReviewsByPlaceId?placeId=126274,Rock Club,Nightlife,0.9
Jumeirah Emirates Towers,attraction,http://tour-pedia.org/api/getPlaceDetails?id=127457,127457,25.217154121166,55.283296511359,Dubai,Studio F,8.0,51a64403498e44d42e46272d,4.0,http://tour-pedia.org/api/getReviewsByPlaceId?placeId=127457,Nightclub,Nightlife,0.35
,attraction,http://tour-pedia.org/api/getPlaceDetails?id=127760,127760,25.044066359274,55.111664060411,Dubai,Layali Vip Club,1.0,51ccab1f498e2739fb38d584,10.0,http://tour-pedia.org/api/getReviewsByPlaceId?placeId=127760,Nightclub,Nightlife,0.44
Mizhar,attraction,http://tour-pedia.org/api/getPlaceDetails?id=127889,127889,25.247779025755,55.440760807064,Dubai,Meelas Marwan - ميلس مروان,1.0,51dda2bc498e5cfe3272a1f5,10.0,http://tour-pedia.org/api/getReviewsByPlaceId?placeId=127889,Comedy Club,Nightlife,0.7
,attraction,http://tour-pedia.org/api/getPlaceDetails?id=128234,128234,25.089729,55.152508,Dubai,The Break In At Media One,1.0,52052c8f11d2c031907f14ce,10.0,http://tour-pedia.org/api/getReviewsByPlaceId?placeId=128234,Nightclub,Nightlife,0.72
,attraction,http://tour-pedia.org/api/getPlaceDetails?id=128485,128485,25.089804,55.152528,Dubai,Level 9 Media 1 Hotel,2.0,5220ef8f11d231a06179c42b,5.0,http://tour-pedia.org/api/getReviewsByPlaceId?placeId=128485,Nightclub,Nightlife,0.2
23 Kuwait Street,attraction,http://tour-pedia.org/api/getPlaceDetails?id=128784,128784,25.116759,55.195876,Dubai,Society,1.0,523d457911d21ef57b88c14a,0.0,http://tour-pedia.org/api/getReviewsByPlaceId?placeId=128784,Nightclub,Nightlife,0.2
,attraction,http://tour-pedia.org/api/getPlaceDetails?id=128893,128893,25.202962,55.278049,Dubai,Vanity Club,2.0,5245f87f11d2ac79d393199a,3.0,http://tour-pedia.org/api/getReviewsByPlaceId?placeId=128893,Nightclub,Nightlife,0.42
Jumeirah Beach Rd.,attraction,http://tour-pedia.org/api/getPlaceDetails?id=114472,114472,25.133241013814,55.186257362366,Dubai,BarZar,32.0,4b0587ecf964a52004a722e3,6.0,http://tour-pedia.org/api/getReviewsByPlaceId?placeId=114472,Pub,Nightlife,0.29
"Airport Road, PO Box 10001",attraction,http://tour-pedia.org/api/getPlaceDetails?id=114485,114485,25.247473,55.346031,Dubai,Dubliners,4.0,4b0587ecf964a5201ea722e3,5.0,http://tour-pedia.org/api/getReviewsByPlaceId?placeId=114485,Pub,Nightlife,0.41
Al Murooj Rotana,attraction,http://tour-pedia.org/api/getPlaceDetails?id=114496,114496,25.202441486023,55.277420282364,Dubai,Double Decker,17.0,4b0587ecf964a52032a722e3,6.0,http://tour-pedia.org/api/getReviewsByPlaceId?placeId=114496,Pub,Nightlife,0.31
"Opposite American Hospital, P. O. Box 32733",attraction,http://tour-pedia.org/api/getPlaceDetails?id=114530,114530,25.23389193177,55.311635602604,Dubai,Somerset's,3.0,4b0587edf964a5205ea722e3,3.0,http://tour-pedia.org/api/getReviewsByPlaceId?placeId=114530,Pub,Nightlife,-0.06
Four Points by Sheraton Bur Dubai,attraction,http://tour-pedia.org/api/getPlaceDetails?id=114551,114551,25.25727191068,55.299897193909,Dubai,Viceroy Bar and Cocktail Lounge,5.0,4b0587eef964a52089a722e3,7.0,http://tour-pedia.org/api/getReviewsByPlaceId?placeId=114551,Pub,Nightlife,0.81
Madinat Jumeirah,attraction,http://tour-pedia.org/api/getPlaceDetails?id=114767,114767,25.133682849698,55.186240133721,Dubai,Brewster's,8.0,4b33920df964a520de1a25e3,8.0,http://tour-pedia.org/api/getReviewsByPlaceId?placeId=114767,Pub,Nightlife,0.23
Sheikh Zayed Rd,attraction,http://tour-pedia.org/api/getPlaceDetails?id=114974,114974,25.217288272795,55.278267860413,Dubai,Fibber Magee's,15.0,4b73d455f964a52008bd2de3,8.0,http://tour-pedia.org/api/getReviewsByPlaceId?placeId=114974,Pub,Nightlife,0.49
Habtoor Grand,attraction,http://tour-pedia.org/api/getPlaceDetails?id=115223,115223,25.085676631782,55.141196250916,Dubai,The Underground,11.0,4ba63385f964a5201e3b39e3,8.0,http://tour-pedia.org/api/getReviewsByPlaceId?placeId=115223,Pub,Nightlife,0.45
Souk Al Bahar,attraction,http://tour-pedia.org/api/getPlaceDetails?id=115700,115700,25.194200526583,55.275874493025,Dubai,Left Bank,24.0,4bec4f1bfd60a59342d03af1,5.0,http://tour-pedia.org/api/getReviewsByPlaceId?placeId=115700,Pub,Nightlife,0.4
DIFC,attraction,http://tour-pedia.org/api/getPlaceDetails?id=115998,115998,25.213828849973,55.281110323193,Dubai,The Gramercy- DIFC,1.0,4c27695b5c5ca5935bb147fe,5.0,http://tour-pedia.org/api/getReviewsByPlaceId?placeId=115998,Pub,Nightlife,0.34
Le Méridien Dubai,attraction,http://tour-pedia.org/api/getPlaceDetails?id=116060,116060,25.248752228585,55.346417427063,Dubai,The Dubliner's,12.0,4c359a91452620a174fa260f,5.0,http://tour-pedia.org/api/getReviewsByPlaceId?placeId=116060,Pub,Nightlife,0.58
Adjacent To The Bonnington Jumeirah Lakes Towers,attraction,http://tour-pedia.org/api/getPlaceDetails?id=116528,116528,25.068437749944,55.141829252243,Dubai,McGettigan's JLT,52.0,4cab2289f47ea1430acc8821,5.0,http://tour-pedia.org/api/getReviewsByPlaceId?placeId=116528,Pub,Nightlife,0.17
Four Points Sheraton,attraction,http://tour-pedia.org/api/getPlaceDetails?id=118057,118057,25.213813345471,55.276165008545,Dubai,Charlie's Pub,2.0,4d938adbb803b60c705b3847,10.0,http://tour-pedia.org/api/getReviewsByPlaceId?placeId=118057,Pub,Nightlife,0.89
Al Badia,attraction,http://tour-pedia.org/api/getPlaceDetails?id=118385,118385,25.219880111868,55.366126308474,Dubai,Al Areesh Club,5.0,4dbf85c4043706a032006f1c,5.0,http://tour-pedia.org/api/getReviewsByPlaceId?placeId=118385,Pub,Nightlife,0.32
,attraction,http://tour-pedia.org/api/getPlaceDetails?id=118790,118790,25.071112,55.13531,Dubai,Nell Gwynne Pub,21.0,4e036e0e52b10583352e773e,6.0,http://tour-pedia.org/api/getReviewsByPlaceId?placeId=118790,Pub,Nightlife,0.49
,attraction,http://tour-pedia.org/api/getPlaceDetails?id=119511,119511,25.250581359054,55.334631164883,Dubai,Churchill's Pub,1.0,4e6b934f52b1c120604fc2f2,9.0,http://tour-pedia.org/api/getReviewsByPlaceId?placeId=119511,Pub,Nightlife,0.73
"The Irish Village, Al Garhoud",attraction,http://tour-pedia.org/api/getPlaceDetails?id=120657,120657,25.254537755929,55.327955449391,Dubai,London Irish Pub,1.0,4ee61a462da504839760f8f6,5.0,http://tour-pedia.org/api/getReviewsByPlaceId?placeId=120657,Pub,Nightlife,0.62
Souk Madinat Jumeirah,attraction,http://tour-pedia.org/api/getPlaceDetails?id=121290,121290,25.133261806516,55.18485440941,Dubai,Belgian Beer Café,2.0,4f2ba907e4b0fc7ec5dcab58,10.0,http://tour-pedia.org/api/getReviewsByPlaceId?placeId=121290,Pub,Nightlife,0.69
"Dubai International Airport, Concourse C",attraction,http://tour-pedia.org/api/getPlaceDetails?id=122179,122179,25.248946305442,55.352618694305,Dubai,McGettigan's DXB [Official Listing],3.0,4f89686b0cd6ba723a2c39c9,4.0,http://tour-pedia.org/api/getReviewsByPlaceId?placeId=122179,Pub,Nightlife,0.26
,attraction,http://tour-pedia.org/api/getPlaceDetails?id=124253,124253,25.259203072131,55.291896055965,Dubai,Goan shack,2.0,5069c6abe4b0f328e12452f9,8.0,http://tour-pedia.org/api/getReviewsByPlaceId?placeId=124253,Pub,Nightlife,0.44
International City,attraction,http://tour-pedia.org/api/getPlaceDetails?id=127792,127792,25.167270822081,55.410447120666,Dubai,Maryam Adeel Art,1.0,51d1305a454a6eebdca4eb6b,10.0,http://tour-pedia.org/api/getReviewsByPlaceId?placeId=127792,Public Art,Nightlife,0.32
Al Muntazah Complex Jebel Ali,attraction,http://tour-pedia.org/api/getPlaceDetails?id=128393,128393,25.029336929321,55.112998962402,Dubai,Al Muntazah club,1.0,5217392e11d20993741dd890,5.0,http://tour-pedia.org/api/getReviewsByPlaceId?placeId=128393,Pub,Nightlife,0.62
,attraction,http://tour-pedia.org/api/getPlaceDetails?id=128625,128625,25.233542,55.316246,Dubai,Alliance Francaise De Dubai,2.0,522c3a6311d23283d8b5606e,10.0,http://tour-pedia.org/api/getReviewsByPlaceId?placeId=128625,Public Art,Nightlife,0.87
Sheikh Zayed Road,attraction,http://tour-pedia.org/api/getPlaceDetails?id=129137,129137,25.222802547951,55.281320842604,Dubai,Fibber Magee's Irish Pub,1.0,525c0e4f498e3f822680fafb,5.0,http://tour-pedia.org/api/getReviewsByPlaceId?placeId=129137,Pub,Nightlife,-0.49
Marco Polo Hotel,attraction,http://tour-pedia.org/api/getPlaceDetails?id=115759,115759,25.273860289817,55.319244307361,Dubai,Chikka Grill,3.0,4bf6ec1b508c0f47c90c3d31,7.0,http://tour-pedia.org/api/getReviewsByPlaceId?placeId=115759,Other Nightlife,Nightlife,0.61
Meydan,attraction,http://tour-pedia.org/api/getPlaceDetails?id=120359,120359,25.161503,55.300219,Dubai,Oil Barons Charity Ball,1.0,4ec67b280e6158bafd4ec702,10.0,http://tour-pedia.org/api/getReviewsByPlaceId?placeId=120359,Other Nightlife,Nightlife,0.81
Kaliwa Sa Kanto Madilim,attraction,http://tour-pedia.org/api/getPlaceDetails?id=122041,122041,25.143505080701,55.252209273315,Dubai,Bibingkahan Ni Aling Nena,1.0,4f7ae1f3e4b0be4638a1e921,10.0,http://tour-pedia.org/api/getReviewsByPlaceId?placeId=122041,Other Nightlife,Nightlife,-0.05
,attraction,http://tour-pedia.org/api/getPlaceDetails?id=122084,122084,25.19689025843,55.275081049613,Dubai,Armani ballroom,1.0,4f7f2d9de4b0e160b8151ed0,0.0,http://tour-pedia.org/api/getReviewsByPlaceId?placeId=122084,Other Nightlife,Nightlife,-0.05
,attraction,http://tour-pedia.org/api/getPlaceDetails?id=122638,122638,25.257805881713,55.330326457653,Dubai,Deira (Dubai),1.0,4fb154f0e4b0e0255938d037,5.0,http://tour-pedia.org/api/getReviewsByPlaceId?placeId=122638,Other Nightlife,Nightlife,0.4
,attraction,http://tour-pedia.org/api/getPlaceDetails?id=125660,125660,25.116299263999,55.194026488375,Dubai,Analog Room,1.0,50f8696ce4b091fbb84b7ff1,0.0,http://tour-pedia.org/api/getReviewsByPlaceId?placeId=125660,Other Nightlife,Nightlife,0.4
Media One Hotel,attraction,http://tour-pedia.org/api/getPlaceDetails?id=128386,128386,25.089770756084,55.152573929843,Dubai,L3V3L 9,1.0,5216766a498ec68ec31a1486,5.0,http://tour-pedia.org/api/getReviewsByPlaceId?placeId=128386,Other Nightlife,Nightlife,0.0
Dubai Marina,attraction,http://tour-pedia.org/api/getPlaceDetails?id=128436,128436,25.072519327947,55.144307613373,Dubai,Dubai Companion,3.0,521b40c92fc69b090ad32e0c,9.0,http://tour-pedia.org/api/getReviewsByPlaceId?placeId=128436,Other Nightlife,Nightlife,0.77
,attraction,http://tour-pedia.org/api/getPlaceDetails?id=128454,128454,25.161169866614,55.207783752733,Dubai,شاطي جميرا,1.0,521e2f5a11d29a7d0c873094,0.0,http://tour-pedia.org/api/getReviewsByPlaceId?placeId=128454,Other Nightlife,Nightlife,0.77
Dubai,accommodation,http://tour-pedia.org/api/getPlaceDetails?id=114402,114402,25.251340813278,55.329597325187,Dubai,Park Hyatt Dubai pool,3.0,4ae2b331f964a520538f21e3,7.0,http://tour-pedia.org/api/getReviewsByPlaceId?placeId=114402,Hotel Pool,Hotel,0.4
Sheikh Zayed Rd.,accommodation,http://tour-pedia.org/api/getPlaceDetails?id=114407,114407,25.208202778504,55.27195930481,Dubai,Shangri-La Hotel,31.0,4b0587eaf964a52093a622e3,5.0,http://tour-pedia.org/api/getReviewsByPlaceId?placeId=114407,Hotel,Hotel,0.44
Sheikh Zayed Rd,accommodation,http://tour-pedia.org/api/getPlaceDetails?id=114412,114412,25.183835552006,55.254771709442,Dubai,The Metropolitan Hotel Dubai,6.0,4b0587eaf964a52098a622e3,7.0,http://tour-pedia.org/api/getReviewsByPlaceId?placeId=114412,Hotel,Hotel,0.35
Jumeirah Rd.,accommodation,http://tour-pedia.org/api/getPlaceDetails?id=114416,114416,25.141477408481,55.190334320068,Dubai,Jumeirah Beach Hotel فندق جميرا بيتش,57.0,4b0587eaf964a520a0a622e3,5.0,http://tour-pedia.org/api/getReviewsByPlaceId?placeId=114416,Hotel,Hotel,0.52
"Salah Al Din Road, Deira",accommodation,http://tour-pedia.org/api/getPlaceDetails?id=114446,114446,25.270435628929,55.327350555636,Dubai,Renaissance Dubai Hotel,2.0,4b0587ebf964a520c7a622e3,8.0,http://tour-pedia.org/api/getReviewsByPlaceId?placeId=114446,Hotel,Hotel,0.39
Bur Dubai,accommodation,http://tour-pedia.org/api/getPlaceDetails?id=114454,114454,25.255487751791,55.284818778823,Dubai,Hotel Seaview,2.0,4b0587ebf964a520d7a622e3,3.0,http://tour-pedia.org/api/getReviewsByPlaceId?placeId=114454,Hotel,Hotel,-0.36
Sheikh Rashid Rd.,accommodation,http://tour-pedia.org/api/getPlaceDetails?id=114458,114458,25.228178323817,55.328092575073,Dubai,Grand Hyatt Hotel فندق جراند حياة,31.0,4b0587ebf964a520dba622e3,7.0,http://tour-pedia.org/api/getReviewsByPlaceId?placeId=114458,Hotel,Hotel,0.47
Al Mankhool Road,accommodation,http://tour-pedia.org/api/getPlaceDetails?id=114463,114463,25.254917431208,55.293294305268,Dubai,Panorama Hotel,1.0,4b0587ebf964a520e1a622e3,5.0,http://tour-pedia.org/api/getReviewsByPlaceId?placeId=114463,Hotel,Hotel,0.7
Sheikh Zayed Road,accommodation,http://tour-pedia.org/api/getPlaceDetails?id=114464,114464,25.171900895015,55.270741529216,Dubai,Bab Al Shams Desert Resort & Spa,5.0,4b0587ebf964a520e2a622e3,8.0,http://tour-pedia.org/api/getReviewsByPlaceId?placeId=114464,Hotel,Hotel,0.5
Dubai Marina,accommodation,http://tour-pedia.org/api/getPlaceDetails?id=114711,114711,25.071178253036,55.1333963871,Dubai,The Address Dubai Marina,50.0,4b0aaf4af964a5205d2623e3,8.0,http://tour-pedia.org/api/getReviewsByPlaceId?placeId=114711,Hotel,Hotel,0.5
World Trade Centre,accommodation,http://tour-pedia.org/api/getPlaceDetails?id=114713,114713,25.226638755741,55.289347953355,Dubai,Jumeirah Living,6.0,4b0ac174f964a5205c2723e3,8.0,http://tour-pedia.org/api/getReviewsByPlaceId?placeId=114713,Hotel,Hotel,0.6
"Mall of the Emirates, Sheikh Zayed Road",accommodation,http://tour-pedia.org/api/getPlaceDetails?id=114718,114718,25.118631702331,55.198831558228,Dubai,Kempinski Hotel فندق كمبنسكي,32.0,4b0c87bff964a520da3e23e3,4.0,http://tour-pedia.org/api/getReviewsByPlaceId?placeId=114718,Hotel,Hotel,0.41
Sheikh Zayed Road,accommodation,http://tour-pedia.org/api/getPlaceDetails?id=114737,114737,25.195369,55.279177,Dubai,Holiday Inn Safa Park,1.0,4b1bc36cf964a52031fd23e3,5.0,http://tour-pedia.org/api/getReviewsByPlaceId?placeId=114737,Hotel,Hotel,0.44
Dubai Media City,accommodation,http://tour-pedia.org/api/getPlaceDetails?id=114754,114754,25.101714244367,55.170960664068,Dubai,Grand Midwest Hotel,1.0,4b266bc0f964a520467b24e3,5.0,http://tour-pedia.org/api/getReviewsByPlaceId?placeId=114754,Hotel,Hotel,0.49
Sheikh Zayed Rd.,accommodation,http://tour-pedia.org/api/getPlaceDetails?id=115242,115242,25.230002942871,55.286979675293,Dubai,The H Hotel فندق ذا إتش,19.0,4baa309df964a520c5513ae3,7.0,http://tour-pedia.org/api/getReviewsByPlaceId?placeId=115242,Hotel,Hotel,0.48
Bani Yas Road,accommodation,http://tour-pedia.org/api/getPlaceDetails?id=115280,115280,25.278908051828,55.30446767807,Dubai,Hyatt Regency حياة ريجنسي,18.0,4bb0bf0ef964a52055593ce3,6.0,http://tour-pedia.org/api/getReviewsByPlaceId?placeId=115280,Hotel,Hotel,0.28
,accommodation,http://tour-pedia.org/api/getPlaceDetails?id=115364,115364,25.222085,55.359936,Dubai,Biblos,1.0,4bc196a3920eb713e1f91a2c,0.0,http://tour-pedia.org/api/getReviewsByPlaceId?placeId=115364,Hotel,Hotel,0.28
Downtown Burj Khalifa,accommodation,http://tour-pedia.org/api/getPlaceDetails?id=115423,115423,25.213889601993,55.285099483559,Dubai,The Palace Hotel,3.0,4bc8414615a7ef3b1fb97ada,7.0,http://tour-pedia.org/api/getReviewsByPlaceId?placeId=115423,Hotel,Hotel,0.39
Sheikh Khalifa Bin Zayed St.,accommodation,http://tour-pedia.org/api/getPlaceDetails?id=115435,115435,25.231316741871,55.311846196489,Dubai,Dhow Palace Hotel,1.0,4bc8ef8b762beee15bb83d38,5.0,http://tour-pedia.org/api/getReviewsByPlaceId?placeId=115435,Hotel,Hotel,0.0
"Emaar Boulevard, The Old Town, Downtown Dubai",accommodation,http://tour-pedia.org/api/getPlaceDetails?id=115473,115473,25.190495764193,55.276604890823,Dubai,Qamardeen Hotel,5.0,4bcc6139aeaaeee148f63d6d,9.0,http://tour-pedia.org/api/getReviewsByPlaceId?placeId=115473,Hotel,Hotel,0.71
Airport Road,accommodation,http://tour-pedia.org/api/getPlaceDetails?id=115500,115500,25.247277234333,55.350966453552,Dubai,Le Méridien Dubai,13.0,4bcf72dc0ffdce729a7db2c0,9.0,http://tour-pedia.org/api/getReviewsByPlaceId?placeId=115500,Hotel,Hotel,0.52
Al Barsha,accommodation,http://tour-pedia.org/api/getPlaceDetails?id=115560,115560,25.114431540766,55.192915649309,Dubai,Seven Sands Hotel Apartments Dubai,3.0,4bd724c5304fce72272333ab,3.0,http://tour-pedia.org/api/getReviewsByPlaceId?placeId=115560,Hotel,Hotel,-0.11
Al Barsha,accommodation,http://tour-pedia.org/api/getPlaceDetails?id=115562,115562,25.115309537468,55.198782768117,Dubai,Dunes Hotel Apartments Barsha Dubai,1.0,4bd72fbc304fce72dc3033ab,5.0,http://tour-pedia.org/api/getReviewsByPlaceId?placeId=115562,Hotel,Hotel,-0.58
Discovery Garden Off Sheikh Zayed Road,accommodation,http://tour-pedia.org/api/getPlaceDetails?id=115571,115571,25.048938701553,55.128447016111,Dubai,Grand Midwest Express Hotel Apartments Dubai,2.0,4bd845d86a51ce7211bcde3f,5.0,http://tour-pedia.org/api/getReviewsByPlaceId?placeId=115571,Hotel,Hotel,0.07
Al Barsha 1,accommodation,http://tour-pedia.org/api/getPlaceDetails?id=115574,115574,25.108632594839,55.183306953926,Dubai,Hotel Ibis,33.0,4bd8467b6a51ce72c6bcde3f,4.0,http://tour-pedia.org/api/getReviewsByPlaceId?placeId=115574,Hotel,Hotel,0.09
Burj Khalifa,accommodation,http://tour-pedia.org/api/getPlaceDetails?id=115614,115614,25.190185091838,55.276293754578,Dubai,Armani Hotel Dubai,56.0,4bdc6a09fed22d7f340c58c9,7.0,http://tour-pedia.org/api/getReviewsByPlaceId?placeId=115614,Hotel,Hotel,0.48
PO Box 116566,accommodation,http://tour-pedia.org/api/getPlaceDetails?id=115637,115637,25.290214318956,55.393503415714,Dubai,Ramada Downtown Burj Dubai Hotel,1.0,4be066ed4c55b6512f6beab7,10.0,http://tour-pedia.org/api/getReviewsByPlaceId?placeId=115637,Hotel,Hotel,0.51
Terminal 3,accommodation,http://tour-pedia.org/api/getPlaceDetails?id=115638,115638,25.248908769042,55.36058816858,Dubai,Dubai International Hotel,17.0,4be07e8798f2a5934c70c25a,5.0,http://tour-pedia.org/api/getReviewsByPlaceId?placeId=115638,Hotel,Hotel,0.37
,accommodation,http://tour-pedia.org/api/getPlaceDetails?id=115780,115780,25.097342272523,55.156411584331,Dubai,Arjan,1.0,4bf9f6598d30d13a53140318,0.0,http://tour-pedia.org/api/getReviewsByPlaceId?placeId=115780,Hotel,Hotel,0.58
,accommodation,http://tour-pedia.org/api/getPlaceDetails?id=115815,115815,25.250761,55.334695,Dubai,City Center Hotel,2.0,4c0046d2369476b0e92c8f1f,1.0,http://tour-pedia.org/api/getReviewsByPlaceId?placeId=115815,Hotel,Hotel,-0.97
"Estiqlal Road, Sharjah",accommodation,http://tour-pedia.org/api/getPlaceDetails?id=115858,115858,25.295555309143,55.439149276353,Dubai,Crystal Plaza Hotel,1.0,4c08f4a1a1b32d7f7ec496f0,0.0,http://tour-pedia.org/api/getReviewsByPlaceId?placeId=115858,Hotel,Hotel,-0.97
Dubai,accommodation,http://tour-pedia.org/api/getPlaceDetails?id=115914,115914,25.276521473951,55.313029289246,Dubai,Fortune Grand Hotel,7.0,4c14d6a9f1e0b713c4e334bc,6.0,http://tour-pedia.org/api/getReviewsByPlaceId?placeId=115914,Hotel,Hotel,0.27
Dubai Marina,accommodation,http://tour-pedia.org/api/getPlaceDetails?id=115918,115918,25.076414175218,55.14171947666,Dubai,Meeting Room The Address Marina,1.0,4c15be4077cea593b3b6d260,10.0,http://tour-pedia.org/api/getReviewsByPlaceId?placeId=115918,Hotel,Hotel,0.78
Tecom,accommodation,http://tour-pedia.org/api/getPlaceDetails?id=115937,115937,25.09513,55.1758,Dubai,Bellevue Grand Hotel,5.0,4c19a6326a21c9b6dff9ca97,0.0,http://tour-pedia.org/api/getReviewsByPlaceId?placeId=115937,Hotel,Hotel,0.78
Discovery Gardens,accommodation,http://tour-pedia.org/api/getPlaceDetails?id=115959,115959,25.052090638981,55.127334594727,Dubai,ZiQoo Hotel Apartment,1.0,4c1df095013795217b5247f3,10.0,http://tour-pedia.org/api/getReviewsByPlaceId?placeId=115959,Hotel,Hotel,0.48
E 311,accommodation,http://tour-pedia.org/api/getPlaceDetails?id=115986,115986,25.259328965307,55.410532951355,Dubai,Etisalat academy,2.0,4c2454fadb519521eaf22b3a,10.0,http://tour-pedia.org/api/getReviewsByPlaceId?placeId=115986,Hotel,Hotel,0.64
Manhattan Dubai Hotel,accommodation,http://tour-pedia.org/api/getPlaceDetails?id=115995,115995,25.251333425435,55.290756225586,Dubai,U2pura,1.0,4c265f8e905a0f47c42f6360,10.0,http://tour-pedia.org/api/getReviewsByPlaceId?placeId=115995,Hotel,Hotel,0.0
"Sheikh Zayed Road, Media City",accommodation,http://tour-pedia.org/api/getPlaceDetails?id=116138,116138,25.148739045619,55.208824670547,Dubai,Fraser Suites Dubai,3.0,4c497ac86594be9a066d1f25,6.0,http://tour-pedia.org/api/getReviewsByPlaceId?placeId=116138,Hotel,Hotel,0.7
Mankhool Rd,accommodation,http://tour-pedia.org/api/getPlaceDetails?id=116285,116285,25.247024930891,55.286207199097,Dubai,Manhattan Hotel,1.0,4c72994013228cfae86d2b65,5.0,http://tour-pedia.org/api/getReviewsByPlaceId?placeId=116285,Hotel,Hotel,0.7
Souk Al Bahar Bridge,accommodation,http://tour-pedia.org/api/getPlaceDetails?id=116303,116303,25.19387253088,55.275280759171,Dubai,Swimming Pool @ The Palace Hotel,3.0,4c792fde81bca0933365fc14,8.0,http://tour-pedia.org/api/getReviewsByPlaceId?placeId=116303,Hotel Pool,Hotel,0.66
Salwan Building,accommodation,http://tour-pedia.org/api/getPlaceDetails?id=116573,116573,25.151229589978,55.245744970059,Dubai,"Sofitel Accommodation, Al Qouz",2.0,4cb526851b0af04de584c725,3.0,http://tour-pedia.org/api/getReviewsByPlaceId?placeId=116573,Hotel,Hotel,-0.31
Al Barsha,accommodation,http://tour-pedia.org/api/getPlaceDetails?id=116961,116961,25.113377727152,55.204488495252,Dubai,Corp Executive Hotel Apartments,7.0,4cf3b77e1d18a143dba361ec,8.0,http://tour-pedia.org/api/getReviewsByPlaceId?placeId=116961,Hotel,Hotel,0.53
Deira,accommodation,http://tour-pedia.org/api/getPlaceDetails?id=116978,116978,25.262651729197,55.32640541761,Dubai,Avenue hotel,2.0,4cf67acf1cfea093ffdadf39,5.0,http://tour-pedia.org/api/getReviewsByPlaceId?placeId=116978,Hotel,Hotel,0.36
Dubai Marina,accommodation,http://tour-pedia.org/api/getPlaceDetails?id=117031,117031,25.257089934,55.304551307409,Dubai,Habtoor Grand Resort & Spa,1.0,4cfe902166ee9eb000dfa64e,10.0,http://tour-pedia.org/api/getReviewsByPlaceId?placeId=117031,Hotel,Hotel,0.49
,accommodation,http://tour-pedia.org/api/getPlaceDetails?id=117102,117102,25.278662049311,55.304421722055,Dubai,Hyatt Regency Crew Lounge,2.0,4d0cedd05c46a09377740bb4,3.0,http://tour-pedia.org/api/getReviewsByPlaceId?placeId=117102,Hotel,Hotel,-0.37
Sheikh Zayed Road,accommodation,http://tour-pedia.org/api/getPlaceDetails?id=117117,117117,25.214408063658,55.276991803279,Dubai,Holiday Inn Express,2.0,4d0f4692c3dc3704ba7f3174,10.0,http://tour-pedia.org/api/getReviewsByPlaceId?placeId=117117,Hotel,Hotel,0.24
D 64,accommodation,http://tour-pedia.org/api/getPlaceDetails?id=117178,117178,25.273798760541,55.378522216304,Dubai,Layia Plaza Hotel,1.0,4d1b80ef2a52b60c8d08f8ff,5.0,http://tour-pedia.org/api/getReviewsByPlaceId?placeId=117178,Hotel,Hotel,0.24
Sheikh Zayed Rd.,accommodation,http://tour-pedia.org/api/getPlaceDetails?id=117332,117332,25.225725754432,55.284122419094,Dubai,Conrad Dubai Hotel فندق كونراد دبي,6.0,4d3170065c2db60c9518b86c,7.0,http://tour-pedia.org/api/getReviewsByPlaceId?placeId=117332,Hotel,Hotel,0.27
,accommodation,http://tour-pedia.org/api/getPlaceDetails?id=117503,117503,25.251256764489,55.302812720105,Dubai,capitol hotel residences,1.0,4d48f9bc183f224bb556d9a8,10.0,http://tour-pedia.org/api/getReviewsByPlaceId?placeId=117503,Hotel,Hotel,0.81
,accommodation,http://tour-pedia.org/api/getPlaceDetails?id=117522,117522,25.191122,55.277711,Dubai,Lobby Al-Manzil Hotel,1.0,4d4a43d183eda1cd9feab0b1,10.0,http://tour-pedia.org/api/getReviewsByPlaceId?placeId=117522,Hotel,Hotel,0.6
11th Floor,accommodation,http://tour-pedia.org/api/getPlaceDetails?id=118099,118099,25.067174376806,55.142869949341,Dubai,The Bonnington Leisure Deck & Pool Bar [Official Listing],1.0,4d9873e3178e60fcfedc7760,10.0,http://tour-pedia.org/api/getReviewsByPlaceId?placeId=118099,Hotel Pool,Hotel,0.32
,accommodation,http://tour-pedia.org/api/getPlaceDetails?id=118225,118225,25.085748980268,55.139015973064,Dubai,"Al Khaima, Le Royal Meridien",3.0,4da87d18f7b12d2d9a0ca803,5.0,http://tour-pedia.org/api/getReviewsByPlaceId?placeId=118225,Hotel,Hotel,0.32
Jumeirah Beach Hotel,accommodation,http://tour-pedia.org/api/getPlaceDetails?id=118558,118558,25.141661,55.189982,Dubai,Leisure Pool,1.0,4dd790ec45ddced820898572,0.0,http://tour-pedia.org/api/getReviewsByPlaceId?placeId=118558,Hotel Pool,Hotel,0.32
,accommodation,http://tour-pedia.org/api/getPlaceDetails?id=119595,119595,25.272421350214,55.300140115347,Dubai,Grand Hayatt Ball Room,1.0,4e72748b183821b8cca06b9c,10.0,http://tour-pedia.org/api/getReviewsByPlaceId?placeId=119595,Hotel,Hotel,0.64
Le Meridien Fairway,accommodation,http://tour-pedia.org/api/getPlaceDetails?id=119790,119790,25.2458382,55.3453037,Dubai,Deluxe Room,1.0,4e8458ad82310f573233fc88,10.0,http://tour-pedia.org/api/getReviewsByPlaceId?placeId=119790,Hotel,Hotel,0.62
,accommodation,http://tour-pedia.org/api/getPlaceDetails?id=119880,119880,25.097334315565,55.170804325106,Dubai,Barracuda Beach Resort,1.0,4e90149fb8f79f71de576a26,0.0,http://tour-pedia.org/api/getReviewsByPlaceId?placeId=119880,Hotel,Hotel,0.62
,accommodation,http://tour-pedia.org/api/getPlaceDetails?id=119941,119941,25.073969894421,55.128834975879,Dubai,Pool and Garden @ Sheraton,2.0,4e9815f3cc217f441ec9124a,8.0,http://tour-pedia.org/api/getReviewsByPlaceId?placeId=119941,Hotel Pool,Hotel,0.41
,accommodation,http://tour-pedia.org/api/getPlaceDetails?id=119993,119993,25.256843420452,55.29285701251,Dubai,Rolla Resident,1.0,4e9faca193ad3307df3c797c,0.0,http://tour-pedia.org/api/getReviewsByPlaceId?placeId=119993,Hotel,Hotel,0.41
,accommodation,http://tour-pedia.org/api/getPlaceDetails?id=120003,120003,25.261556207305,55.348659406106,Dubai,Emirates Towers Hotel,1.0,4ea109dc490102dac20505bd,10.0,http://tour-pedia.org/api/getReviewsByPlaceId?placeId=120003,Hotel,Hotel,0.64
,accommodation,http://tour-pedia.org/api/getPlaceDetails?id=120068,120068,25.097304683162,55.175376010093,Dubai,Asiana hotel,1.0,4ea66ca4dab44fef918d65e2,10.0,http://tour-pedia.org/api/getReviewsByPlaceId?placeId=120068,Hotel,Hotel,0.8
,accommodation,http://tour-pedia.org/api/getPlaceDetails?id=120085,120085,25.118352874571,55.197191919524,Dubai,Executie Loung At Kempinski,1.0,4ea9007b490158681ad32b37,10.0,http://tour-pedia.org/api/getReviewsByPlaceId?placeId=120085,Hotel,Hotel,0.62
,accommodation,http://tour-pedia.org/api/getPlaceDetails?id=120134,120134,25.222944511041,55.282583969866,Dubai,Jumirah Beach Hotel,1.0,4eae2ccf02d5cf33fabadd79,0.0,http://tour-pedia.org/api/getReviewsByPlaceId?placeId=120134,Hotel,Hotel,0.62
,accommodation,http://tour-pedia.org/api/getPlaceDetails?id=120169,120169,25.114874508867,55.202795073438,Dubai,Najd Apartment Hotel (real one!),1.0,4eb1a44b2c5b5915cd9deb5c,10.0,http://tour-pedia.org/api/getReviewsByPlaceId?placeId=120169,Hotel,Hotel,0.49
Al Qasr,accommodation,http://tour-pedia.org/api/getPlaceDetails?id=120594,120594,25.13217514997,55.183932402946,Dubai,Al Majiss Lounge مجلس فندق القصر,1.0,4edd35a961af8a14b9ae2bee,10.0,http://tour-pedia.org/api/getReviewsByPlaceId?placeId=120594,Hotel,Hotel,0.48
Dubai Marina,accommodation,http://tour-pedia.org/api/getPlaceDetails?id=120773,120773,25.079394586072,55.143212286254,Dubai,Dusit Residence,3.0,4ef372cb722e31c646acee3d,3.0,http://tour-pedia.org/api/getReviewsByPlaceId?placeId=120773,Hotel,Hotel,0.8
Abu Hail,accommodation,http://tour-pedia.org/api/getPlaceDetails?id=120797,120797,25.278469,55.348777,Dubai,Al Manara Hotel Apartment,1.0,4ef5619df9ab42ef30409d80,10.0,http://tour-pedia.org/api/getReviewsByPlaceId?placeId=120797,Hotel,Hotel,0.62
Behind Mall of Emirates,accommodation,http://tour-pedia.org/api/getPlaceDetails?id=120872,120872,25.114980365782,55.20285978958,Dubai,Najad Hotel Apartment,2.0,4efb463e8231c11159e0a5d1,10.0,http://tour-pedia.org/api/getReviewsByPlaceId?placeId=120872,Hotel,Hotel,0.73
Emaar Boulevard,accommodation,http://tour-pedia.org/api/getPlaceDetails?id=121049,121049,25.190930293856,55.277526174174,Dubai,Poolside at Al Manzil,1.0,4f1014a4e4b0d59e1e81f294,5.0,http://tour-pedia.org/api/getReviewsByPlaceId?placeId=121049,Hotel Pool,Hotel,0.15
Al Mina Road,accommodation,http://tour-pedia.org/api/getPlaceDetails?id=121261,121261,25.242913558483,55.275744950744,Dubai,Mercure Gold Hotel,5.0,4f27d420e4b015cb4e2a777f,5.0,http://tour-pedia.org/api/getReviewsByPlaceId?placeId=121261,Hotel,Hotel,0.28
Jumeirah Lakes Towers,accommodation,http://tour-pedia.org/api/getPlaceDetails?id=121263,121263,25.078021233507,55.148817291986,Dubai,Pullman Jumeirah Lakes Towers,1.0,4f28d53ee4b0205685ea1390,5.0,http://tour-pedia.org/api/getReviewsByPlaceId?placeId=121263,Hotel,Hotel,0.32
www.wolhome.com,accommodation,http://tour-pedia.org/api/getPlaceDetails?id=121450,121450,25.069427296935,55.188289105736,Dubai,Well of Life (Grand Excelsior),1.0,4f3e06d8e4b0a3644dcc17e4,0.0,http://tour-pedia.org/api/getReviewsByPlaceId?placeId=121450,Hotel,Hotel,0.32
,accommodation,http://tour-pedia.org/api/getPlaceDetails?id=121578,121578,25.078058819006,55.142759590331,Dubai,Address Marina Hotel,1.0,4f4ac0f0e4b0962089f15f39,10.0,http://tour-pedia.org/api/getReviewsByPlaceId?placeId=121578,Hotel,Hotel,0.82
"Bur Dubai , Almankhol",accommodation,http://tour-pedia.org/api/getPlaceDetails?id=121679,121679,25.251166752162,55.297424401732,Dubai,Ascot Hotel Apartment,2.0,4f5490f3e4b07de37dd2c702,8.0,http://tour-pedia.org/api/getReviewsByPlaceId?placeId=121679,Hotel,Hotel,0.29
Dubai Marina,accommodation,http://tour-pedia.org/api/getPlaceDetails?id=121720,121720,25.150735161331,55.224849927579,Dubai,The Adress hotel,2.0,4f58f930e4b0c19b5f32459b,0.0,http://tour-pedia.org/api/getReviewsByPlaceId?placeId=121720,Hotel,Hotel,0.29
"Sheikh Zayed Road, Opposite Safa Park",accommodation,http://tour-pedia.org/api/getPlaceDetails?id=121756,121756,25.185311315552,55.257711410522,Dubai,JW Marriott Marquis ماريوت ماركيه,41.0,4f5c600be4b0c4b689a73154,7.0,http://tour-pedia.org/api/getReviewsByPlaceId?placeId=121756,Hotel,Hotel,0.45
Omer Abin Katab Street,accommodation,http://tour-pedia.org/api/getPlaceDetails?id=121913,121913,25.291385668081,55.344715928142,Dubai,Montreal Hotel,1.0,4f6b9db7e4b07984c1e4e646,10.0,http://tour-pedia.org/api/getReviewsByPlaceId?placeId=121913,Hotel,Hotel,0.87
,accommodation,http://tour-pedia.org/api/getPlaceDetails?id=121929,121929,25.075941832488,55.132208144994,Dubai,Lobby @ Hilton Jumeirah,1.0,4f6db2dfe4b0e20e14ebf85c,5.0,http://tour-pedia.org/api/getReviewsByPlaceId?placeId=121929,Hotel,Hotel,0.38
,accommodation,http://tour-pedia.org/api/getPlaceDetails?id=122001,122001,25.274308406008,55.304929265803,Dubai,Amwaj Hotel,1.0,4f76956ce4b0557b215459b1,5.0,http://tour-pedia.org/api/getReviewsByPlaceId?placeId=122001,Hotel,Hotel,0.0
