address,category,details,id,lat,lng,location,name,numReviews,originalId,polarity,reviews,subCategory,Sub,vader
,attraction,http://tour-pedia.org/api/getPlaceDetails?id=186347,186347,42.366615,10.881135,Tuscany,Bar L'Approdo,1.0,4c4228923735be9aad9719a4,10.0,http://tour-pedia.org/api/getReviewsByPlaceId?placeId=186347,Bar,Nightlife,0.96
,attraction,http://tour-pedia.org/api/getPlaceDetails?id=186353,186353,42.36639447817,10.880497518586,Tuscany,Bar Lo Scoglio Da Veo,1.0,4e35403b14952ff6cbc5cbc7,2.0,http://tour-pedia.org/api/getReviewsByPlaceId?placeId=186353,Bar,Nightlife,0.96
Piazza della cisterna 12,attraction,http://tour-pedia.org/api/getPlaceDetails?id=186376,186376,42.365968018738,10.899946742117,Tuscany,La Cisterna,1.0,4e557303b61cc11917f247c8,10.0,http://tour-pedia.org/api/getReviewsByPlaceId?placeId=186376,Wine Bar,Nightlife,0.96
,attraction,http://tour-pedia.org/api/getPlaceDetails?id=186398,186398,42.359424,10.92168,Tuscany,Bar Monti,3.0,4c3f98e7af052d7fd9967a79,5.0,http://tour-pedia.org/api/getReviewsByPlaceId?placeId=186398,Bar,Nightlife,0.77
,attraction,http://tour-pedia.org/api/getPlaceDetails?id=186402,186402,42.361391164651,10.919317192446,Tuscany,Il Demino,1.0,4e52738422710da1b3de1b20,5.0,http://tour-pedia.org/api/getReviewsByPlaceId?placeId=186402,Cocktail Bar,Nightlife,0.77
,attraction,http://tour-pedia.org/api/getPlaceDetails?id=186468,186468,42.748989093026,10.118525176525,Tuscany,Bar Sud Ovest,1.0,51fe54a5498e72c6fab26294,5.0,http://tour-pedia.org/api/getReviewsByPlaceId?placeId=186468,Bar,Nightlife,0.77
,attraction,http://tour-pedia.org/api/getPlaceDetails?id=186480,186480,42.807363371043,10.140886945261,Tuscany,Beach Bar Le Sirene,3.0,4e41509ad4c0b124a8ec6f56,10.0,http://tour-pedia.org/api/getReviewsByPlaceId?placeId=186480,Bar,Nightlife,0.77
,attraction,http://tour-pedia.org/api/getPlaceDetails?id=186482,186482,42.807048648574,10.14093617038,Tuscany,Beach Bar Il Gabbiano,1.0,4df326efa809141629a18bb3,5.0,http://tour-pedia.org/api/getReviewsByPlaceId?placeId=186482,Bar,Nightlife,0.77
,attraction,http://tour-pedia.org/api/getPlaceDetails?id=186488,186488,42.733693922466,10.153845038411,Tuscany,Chiosco Del Caloncino,1.0,4c56f6e9cc96c9b65ed7772e,10.0,http://tour-pedia.org/api/getReviewsByPlaceId?placeId=186488,Bar,Nightlife,0.77
Localita' Pozzatello,attraction,http://tour-pedia.org/api/getPlaceDetails?id=186492,186492,42.785507316265,10.167215363944,Tuscany,Cabinovia,1.0,4e4e346aae6051db8db9a851,10.0,http://tour-pedia.org/api/getReviewsByPlaceId?placeId=186492,Bar,Nightlife,0.77
Piazza del Castagneto,attraction,http://tour-pedia.org/api/getPlaceDetails?id=186512,186512,42.786961595782,10.183887337127,Tuscany,Bar La Dolce Vita,2.0,4bbf4916006dc9b69549fc3f,5.0,http://tour-pedia.org/api/getReviewsByPlaceId?placeId=186512,Bar,Nightlife,0.77
,attraction,http://tour-pedia.org/api/getPlaceDetails?id=186515,186515,42.737401816183,10.186147350654,Tuscany,Bar Il Convio Cavoli,1.0,51ffc673498e848343ad19cd,10.0,http://tour-pedia.org/api/getReviewsByPlaceId?placeId=186515,Bar,Nightlife,0.77
"Viale Aldo Moro, 68",attraction,http://tour-pedia.org/api/getPlaceDetails?id=186519,186519,42.808875492585,10.194137206824,Tuscany,Yachting BAR,1.0,4c700a539c6d6dcbc142d17a,10.0,http://tour-pedia.org/api/getReviewsByPlaceId?placeId=186519,Bar,Nightlife,0.77
Viale Margherita 72,attraction,http://tour-pedia.org/api/getPlaceDetails?id=186523,186523,42.808868702819,10.194164570583,Tuscany,Slocum,5.0,4c841875e602b1f71b10ac7a,6.0,http://tour-pedia.org/api/getReviewsByPlaceId?placeId=186523,Bar,Nightlife,0.77
,attraction,http://tour-pedia.org/api/getPlaceDetails?id=186567,186567,42.742767,10.235878229141,Tuscany,Baobab Cafe,6.0,4ca6114cd971b1f7e169fce0,5.0,http://tour-pedia.org/api/getReviewsByPlaceId?placeId=186567,Bar,Nightlife,0.77
,attraction,http://tour-pedia.org/api/getPlaceDetails?id=186570,186570,42.742728113167,10.236752797733,Tuscany,Bar Bistrot,1.0,4d051154c2e53704c72ebc67,5.0,http://tour-pedia.org/api/getReviewsByPlaceId?placeId=186570,Bar,Nightlife,0.59
Via Roma,attraction,http://tour-pedia.org/api/getPlaceDetails?id=186571,186571,42.743511,10.234224,Tuscany,El Pimpa,3.0,4d05050dc2e5370455e5bb67,5.0,http://tour-pedia.org/api/getReviewsByPlaceId?placeId=186571,Cocktail Bar,Nightlife,0.58
,attraction,http://tour-pedia.org/api/getPlaceDetails?id=186587,186587,42.769859436817,10.240016181829,Tuscany,giannino,1.0,51e1e655498e8fa68203c08e,10.0,http://tour-pedia.org/api/getReviewsByPlaceId?placeId=186587,Piano Bar,Nightlife,0.58
,attraction,http://tour-pedia.org/api/getPlaceDetails?id=186610,186610,42.787315335605,10.24378345845,Tuscany,"L'orizzonte (Beach Bar, Brasserie)",2.0,4df0c4be227193bb466c9957,5.0,http://tour-pedia.org/api/getReviewsByPlaceId?placeId=186610,Bar,Nightlife,0.88
,attraction,http://tour-pedia.org/api/getPlaceDetails?id=186611,186611,42.785980384092,10.245617873189,Tuscany,Bar La Pinta,3.0,4c89e0b92e333704c8cdbe41,4.0,http://tour-pedia.org/api/getReviewsByPlaceId?placeId=186611,Bar,Nightlife,0.88
Corso di Procchio,attraction,http://tour-pedia.org/api/getPlaceDetails?id=186612,186612,42.78575968677,10.245590493587,Tuscany,Il Postale,1.0,51e4295c498e52c63ae99b92,0.0,http://tour-pedia.org/api/getReviewsByPlaceId?placeId=186612,Bar,Nightlife,0.88
,attraction,http://tour-pedia.org/api/getPlaceDetails?id=186713,186713,42.760527,10.312986,Tuscany,Bar Tobagos,3.0,4ea6eaa84690ee4469198336,2.0,http://tour-pedia.org/api/getReviewsByPlaceId?placeId=186713,Bar,Nightlife,0.88
,attraction,http://tour-pedia.org/api/getPlaceDetails?id=186757,186757,42.814130894449,10.32916927,Tuscany,Il baretto,3.0,4c76adddff1fb60cb2a6f9a7,7.0,http://tour-pedia.org/api/getReviewsByPlaceId?placeId=186757,Bar,Nightlife,0.39
Pontile Comandante G. Massimo,attraction,http://tour-pedia.org/api/getPlaceDetails?id=186759,186759,42.81364777891,10.323272789732,Tuscany,Bar Piccadilly,1.0,4deb8fab18386283a401c715,5.0,http://tour-pedia.org/api/getReviewsByPlaceId?placeId=186759,Bar,Nightlife,0.39
,attraction,http://tour-pedia.org/api/getPlaceDetails?id=186770,186770,42.813989267777,10.331762757749,Tuscany,Caffe La Vela,1.0,4e2f3cb8d4c058fdbef1efc4,10.0,http://tour-pedia.org/api/getReviewsByPlaceId?placeId=186770,Bar,Nightlife,0.39
,attraction,http://tour-pedia.org/api/getPlaceDetails?id=186794,186794,42.815031718556,10.331653133942,Tuscany,Bar L'angolo,1.0,4bfa65f95efe2d7ff17e6d34,5.0,http://tour-pedia.org/api/getReviewsByPlaceId?placeId=186794,Bar,Nightlife,0.39
,attraction,http://tour-pedia.org/api/getPlaceDetails?id=186850,186850,42.745579697869,10.377701395992,Tuscany,Fandango,4.0,4c083a037e3fc9289c03f082,7.0,http://tour-pedia.org/api/getReviewsByPlaceId?placeId=186850,Wine Bar,Nightlife,0.39
,attraction,http://tour-pedia.org/api/getPlaceDetails?id=186862,186862,42.745514829373,10.378578838428,Tuscany,BarDotto,1.0,4fe9c82ce4b0ccd54207b7a4,5.0,http://tour-pedia.org/api/getReviewsByPlaceId?placeId=186862,Bar,Nightlife,0.39
,attraction,http://tour-pedia.org/api/getPlaceDetails?id=186892,186892,42.722335836197,10.377503972619,Tuscany,Innamorata Bar,1.0,4dee0fb2fa76b21ed9916ff0,5.0,http://tour-pedia.org/api/getReviewsByPlaceId?placeId=186892,Bar,Nightlife,0.39
Via Ricasoli 24,attraction,http://tour-pedia.org/api/getPlaceDetails?id=186906,186906,42.76619,10.398383,Tuscany,Curandero,7.0,4de92c43c65b72347a230cd5,9.0,http://tour-pedia.org/api/getReviewsByPlaceId?placeId=186906,Cocktail Bar,Nightlife,0.39
Via Felice Cavallotti 13,attraction,http://tour-pedia.org/api/getPlaceDetails?id=186907,186907,42.766221745784,10.397813419529,Tuscany,Barkollo,4.0,4e441933a809d4ed1bb80a98,6.0,http://tour-pedia.org/api/getReviewsByPlaceId?placeId=186907,Cocktail Bar,Nightlife,0.0
Porto Azzurro,attraction,http://tour-pedia.org/api/getPlaceDetails?id=186911,186911,42.763413,10.399996,Tuscany,DezLaif,3.0,517ea50fe4b08338dfaf5737,3.0,http://tour-pedia.org/api/getReviewsByPlaceId?placeId=186911,Bar,Nightlife,0.0
Vicolo Montebello 2,attraction,http://tour-pedia.org/api/getPlaceDetails?id=186917,186917,42.766067255572,10.398548440458,Tuscany,Altaluna,2.0,4de02a15ae605835c44c73ab,3.0,http://tour-pedia.org/api/getReviewsByPlaceId?placeId=186917,Cocktail Bar,Nightlife,0.0
,attraction,http://tour-pedia.org/api/getPlaceDetails?id=186918,186918,42.763428,10.400113,Tuscany,Dez Laif,1.0,4ffb5691e4b07354dd982418,5.0,http://tour-pedia.org/api/getReviewsByPlaceId?placeId=186918,Cocktail Bar,Nightlife,0.0
,attraction,http://tour-pedia.org/api/getPlaceDetails?id=186922,186922,42.76550102,10.39705643,Tuscany,Bar Casella,2.0,4c7017e0b3ce224bbebe72c6,10.0,http://tour-pedia.org/api/getReviewsByPlaceId?placeId=186922,Cocktail Bar,Nightlife,0.0
,attraction,http://tour-pedia.org/api/getPlaceDetails?id=186981,186981,42.814835,10.428093,Tuscany,Bar Jolly,1.0,4db3279293a017099dbd99d3,5.0,http://tour-pedia.org/api/getReviewsByPlaceId?placeId=186981,Bar,Nightlife,0.0
P.zza Vittorio Emanuele II,attraction,http://tour-pedia.org/api/getPlaceDetails?id=186983,186983,42.815476,10.427103,Tuscany,Bar Centrale,1.0,4d0285dd0e49721ebb5d657f,5.0,http://tour-pedia.org/api/getReviewsByPlaceId?placeId=186983,Bar,Nightlife,0.0
,attraction,http://tour-pedia.org/api/getPlaceDetails?id=187015,187015,43.051717,9.836501,Tuscany,Bar Il Porto,1.0,4c38e1440a71c9b6e68641c9,0.0,http://tour-pedia.org/api/getReviewsByPlaceId?placeId=187015,Bar,Nightlife,0.0
,attraction,http://tour-pedia.org/api/getPlaceDetails?id=187016,187016,43.047597104767,9.8421809309107,Tuscany,Barracuda,1.0,4fdcfa36e4b07b2b86b65d44,10.0,http://tour-pedia.org/api/getReviewsByPlaceId?placeId=187016,Cocktail Bar,Nightlife,0.0
,attraction,http://tour-pedia.org/api/getPlaceDetails?id=187033,187033,44.381664276123,9.8609075546265,Tuscany,Caffetteria Prelibo,1.0,5219aca911d247f3c595f5ac,10.0,http://tour-pedia.org/api/getReviewsByPlaceId?placeId=187033,Bar,Nightlife,0.0
,attraction,http://tour-pedia.org/api/getPlaceDetails?id=187038,187038,44.37966787586,9.8637683605757,Tuscany,country club,1.0,51dda3c9498e05c2ef3821a6,10.0,http://tour-pedia.org/api/getReviewsByPlaceId?placeId=187038,Cocktail Bar,Nightlife,0.0
,attraction,http://tour-pedia.org/api/getPlaceDetails?id=187061,187061,44.376808173024,9.881767489258,Tuscany,Bar Orchidea,1.0,51fcaf44498e5c6a9798bfe9,8.0,http://tour-pedia.org/api/getReviewsByPlaceId?placeId=187061,Bar,Nightlife,0.0
Piazza Del Duomo,attraction,http://tour-pedia.org/api/getPlaceDetails?id=187067,187067,44.377662158059,9.8826181927372,Tuscany,Bar Luciano,1.0,4f082b75e4b0ad9c24e92930,0.0,http://tour-pedia.org/api/getReviewsByPlaceId?placeId=187067,Bar,Nightlife,0.0
Viale Resistenza 52/z,attraction,http://tour-pedia.org/api/getPlaceDetails?id=187172,187172,44.213608433795,9.9677364291131,Tuscany,SMART Café,4.0,515b0aafe4b03570d089d5a4,3.0,http://tour-pedia.org/api/getReviewsByPlaceId?placeId=187172,Cocktail Bar,Nightlife,0.0
Piazza Ferrari,attraction,http://tour-pedia.org/api/getPlaceDetails?id=187177,187177,44.2111152707,9.9634733402408,Tuscany,Bar Cesare,1.0,5158a14fe4b0d20cd9c95c25,5.0,http://tour-pedia.org/api/getReviewsByPlaceId?placeId=187177,Bar,Nightlife,0.53
,attraction,http://tour-pedia.org/api/getPlaceDetails?id=187203,187203,44.207531463643,9.9699635806922,Tuscany,Bar Cesare,1.0,51cf40cd498ea1f46a8278a3,5.0,http://tour-pedia.org/api/getReviewsByPlaceId?placeId=187203,Bar,Nightlife,0.53
,attraction,http://tour-pedia.org/api/getPlaceDetails?id=187209,187209,44.20809006717,9.9702365198703,Tuscany,Bar Sport,1.0,4db09a8d4df03036e8be305f,10.0,http://tour-pedia.org/api/getReviewsByPlaceId?placeId=187209,Sports Bar,Nightlife,0.53
Via Rinchiosa 43,attraction,http://tour-pedia.org/api/getPlaceDetails?id=187349,187349,44.03922489,10.03821144,Tuscany,Porfirio Exclusive Cafè,1.0,4dc51e8481303adecba90e41,5.0,http://tour-pedia.org/api/getReviewsByPlaceId?placeId=187349,Cocktail Bar,Nightlife,0.53
Via Genova 14DBIS,attraction,http://tour-pedia.org/api/getPlaceDetails?id=187358,187358,44.038626794264,10.038536467734,Tuscany,Café Samba,4.0,4e4070d57d8be0ba11bb9709,6.0,http://tour-pedia.org/api/getReviewsByPlaceId?placeId=187358,Bar,Nightlife,0.53
,attraction,http://tour-pedia.org/api/getPlaceDetails?id=187376,187376,44.191364,10.051404,Tuscany,Circolo ARCI dell'Alpino,3.0,4c83f87bd8086dcb20f58452,8.0,http://tour-pedia.org/api/getReviewsByPlaceId?placeId=187376,Bar,Nightlife,0.53
,attraction,http://tour-pedia.org/api/getPlaceDetails?id=187383,187383,44.050327,10.048858,Tuscany,Bar Europa,1.0,4e671bf745dde0f9e2481d64,5.0,http://tour-pedia.org/api/getReviewsByPlaceId?placeId=187383,Bar,Nightlife,0.53
,attraction,http://tour-pedia.org/api/getPlaceDetails?id=187389,187389,44.035918966227,10.044218255313,Tuscany,Ciccio Marina,4.0,4c6582379cb82d7f02ff8dd2,5.0,http://tour-pedia.org/api/getReviewsByPlaceId?placeId=187389,Cocktail Bar,Nightlife,0.65
,attraction,http://tour-pedia.org/api/getPlaceDetails?id=187407,187407,44.20290530533,10.061850538766,Tuscany,Vino Estremo,2.0,4c8401a247cc224b1c8c949f,10.0,http://tour-pedia.org/api/getReviewsByPlaceId?placeId=187407,Wine Bar,Nightlife,0.65
,attraction,http://tour-pedia.org/api/getPlaceDetails?id=187479,187479,44.024100262599,10.075797148454,Tuscany,Babylon,1.0,50355f9fe4b0dc8dfab67d15,5.0,http://tour-pedia.org/api/getReviewsByPlaceId?placeId=187479,Cocktail Bar,Nightlife,0.65
Via Verdi,attraction,http://tour-pedia.org/api/getPlaceDetails?id=187526,187526,44.077607999332,10.099585828998,Tuscany,La Vinaccia,1.0,4ee8ee0e02d5895bd7d6d750,10.0,http://tour-pedia.org/api/getReviewsByPlaceId?placeId=187526,Wine Bar,Nightlife,0.65
Via San Leonardo 261,attraction,http://tour-pedia.org/api/getPlaceDetails?id=187568,187568,44.009239,10.101008,Tuscany,Moulin Rouge,10.0,4ff747fae4b0f08304f04538,6.0,http://tour-pedia.org/api/getReviewsByPlaceId?placeId=187568,Cocktail Bar,Nightlife,0.65
Via cristoforo colombo 25,attraction,http://tour-pedia.org/api/getPlaceDetails?id=187575,187575,44.00998237,10.09978103,Tuscany,Phoenix,1.0,4c5d0d1d85a1e21eea875811,5.0,http://tour-pedia.org/api/getReviewsByPlaceId?placeId=187575,Cocktail Bar,Nightlife,0.65
,attraction,http://tour-pedia.org/api/getPlaceDetails?id=187576,187576,44.01025298742,10.101646870698,Tuscany,Smood Cafè,3.0,4dc5dcadc65b89d3ca7a9cb4,2.0,http://tour-pedia.org/api/getReviewsByPlaceId?placeId=187576,Cocktail Bar,Nightlife,0.0
,attraction,http://tour-pedia.org/api/getPlaceDetails?id=187603,187603,44.004258,10.105512,Tuscany,Cycas Giò,3.0,4c5c64f185a1e21eab865611,4.0,http://tour-pedia.org/api/getReviewsByPlaceId?placeId=187603,Cocktail Bar,Nightlife,0.0
v.le Vespucci,attraction,http://tour-pedia.org/api/getPlaceDetails?id=187625,187625,44.001376306951,10.108929240786,Tuscany,Vespucci 20,2.0,4e6bed578877ce9597c5b7e5,3.0,http://tour-pedia.org/api/getReviewsByPlaceId?placeId=187625,Cocktail Bar,Nightlife,0.0
,attraction,http://tour-pedia.org/api/getPlaceDetails?id=187635,187635,44.238477486938,10.125327715876,Tuscany,Angolo Del Caffè,1.0,4f5a825be4b086681a3eb99e,10.0,http://tour-pedia.org/api/getReviewsByPlaceId?placeId=187635,Sports Bar,Nightlife,0.0
Lungo mare di Levante,attraction,http://tour-pedia.org/api/getPlaceDetails?id=187708,187708,44.00263518424,10.127635449107,Tuscany,Maskara,1.0,4f7f4e71e4b05ed86071c519,5.0,http://tour-pedia.org/api/getReviewsByPlaceId?placeId=187708,Cocktail Bar,Nightlife,0.0
,attraction,http://tour-pedia.org/api/getPlaceDetails?id=187717,187717,44.002269863086,10.110077417263,Tuscany,Bar Miro',4.0,4e5531f945dd5c591f53842d,4.0,http://tour-pedia.org/api/getReviewsByPlaceId?placeId=187717,Sports Bar,Nightlife,0.69
Viale della stazione,attraction,http://tour-pedia.org/api/getPlaceDetails?id=187728,187728,44.027265449557,10.13700918612,Tuscany,Bar Tonlorenzi,1.0,4de15ab9d22d2a4ecdaba75c,5.0,http://tour-pedia.org/api/getReviewsByPlaceId?placeId=187728,Bar,Nightlife,0.69
,attraction,http://tour-pedia.org/api/getPlaceDetails?id=187729,187729,44.034802,10.138887,Tuscany,Ginger Cafè,1.0,4f92ddd2e4b0e8f4653223d6,5.0,http://tour-pedia.org/api/getReviewsByPlaceId?placeId=187729,Bar,Nightlife,0.69
Via Eugenio Chiesa 51,attraction,http://tour-pedia.org/api/getPlaceDetails?id=187733,187733,44.034561758615,10.138704659262,Tuscany,Bar Bollicine,1.0,4f763d04e4b05c37fa597e91,10.0,http://tour-pedia.org/api/getReviewsByPlaceId?placeId=187733,Cocktail Bar,Nightlife,0.69
Piazza IV Novembre,attraction,http://tour-pedia.org/api/getPlaceDetails?id=187748,187748,44.024358,10.137085,Tuscany,Café Mazzini,1.0,4d962bf8744f3704f58ab357,0.0,http://tour-pedia.org/api/getReviewsByPlaceId?placeId=187748,Cocktail Bar,Nightlife,0.69
,attraction,http://tour-pedia.org/api/getPlaceDetails?id=187749,187749,44.023602,10.136678,Tuscany,Ygu,1.0,4d97a782a2c65481633bdf53,5.0,http://tour-pedia.org/api/getReviewsByPlaceId?placeId=187749,Cocktail Bar,Nightlife,0.69
Via Dante Alighieri,attraction,http://tour-pedia.org/api/getPlaceDetails?id=187784,187784,44.03763242156,10.143342765261,Tuscany,Omero - Enoteca Il Colpo Al Cerchio,3.0,4de6be0b814d32a5c5e5cf9f,7.0,http://tour-pedia.org/api/getReviewsByPlaceId?placeId=187784,Wine Bar,Nightlife,0.69
Via Dante Alighieri,attraction,http://tour-pedia.org/api/getPlaceDetails?id=187787,187787,44.037833442271,10.143649063866,Tuscany,Enoteca Quasimodo,1.0,4dbc8af66e810768bf620061,10.0,http://tour-pedia.org/api/getReviewsByPlaceId?placeId=187787,Wine Bar,Nightlife,0.69
,attraction,http://tour-pedia.org/api/getPlaceDetails?id=187791,187791,44.034465,10.143938,Tuscany,Il Socio,1.0,52055f0f11d284f645fd6edb,0.0,http://tour-pedia.org/api/getReviewsByPlaceId?placeId=187791,Bar,Nightlife,0.69
,attraction,http://tour-pedia.org/api/getPlaceDetails?id=187834,187834,43.981004,10.1425,Tuscany,Vintage Cafè,2.0,4f80b84ee4b09a14771472e2,8.0,http://tour-pedia.org/api/getReviewsByPlaceId?placeId=187834,Cocktail Bar,Nightlife,0.69
,attraction,http://tour-pedia.org/api/getPlaceDetails?id=187847,187847,43.978685924021,10.145984625694,Tuscany,Cafè Merusi,1.0,4c765325c219224b0ed2a428,5.0,http://tour-pedia.org/api/getReviewsByPlaceId?placeId=187847,Bar,Nightlife,0.69
,attraction,http://tour-pedia.org/api/getPlaceDetails?id=187865,187865,44.003745419056,10.155026622333,Tuscany,Bar Del Re,1.0,4e44174fe4cd394059e57a0c,10.0,http://tour-pedia.org/api/getReviewsByPlaceId?placeId=187865,Bar,Nightlife,0.69
,attraction,http://tour-pedia.org/api/getPlaceDetails?id=187901,187901,43.969577,10.157134,Tuscany,Posidonia,1.0,50143899e4b01bcdb236b9ed,5.0,http://tour-pedia.org/api/getReviewsByPlaceId?placeId=187901,Cocktail Bar,Nightlife,0.69
"via A. Franceschi, 6",attraction,http://tour-pedia.org/api/getPlaceDetails?id=187975,187975,43.956178378835,10.169214606285,Tuscany,Costes,14.0,4c38dced1e06d13a5292783e,5.0,http://tour-pedia.org/api/getReviewsByPlaceId?placeId=187975,Cocktail Bar,Nightlife,0.0
Viale Italico,attraction,http://tour-pedia.org/api/getPlaceDetails?id=187980,187980,43.958129,10.166922,Tuscany,Fitbal Bar,1.0,520fece4498e630172dad959,5.0,http://tour-pedia.org/api/getReviewsByPlaceId?placeId=187980,Cocktail Bar,Nightlife,0.0
"Viale Morin, 89a",attraction,http://tour-pedia.org/api/getPlaceDetails?id=188021,188021,43.950757,10.17676,Tuscany,Almarosa,9.0,4c40c696ff711b8d3feb1005,6.0,http://tour-pedia.org/api/getReviewsByPlaceId?placeId=188021,Cocktail Bar,Nightlife,0.49
Viale Ammiraglio Morin,attraction,http://tour-pedia.org/api/getPlaceDetails?id=188025,188025,43.95220041275,10.175433,Tuscany,Caffé Morin,4.0,4bb3a736a32876b0fc0402fe,7.0,http://tour-pedia.org/api/getReviewsByPlaceId?placeId=188025,Cocktail Bar,Nightlife,0.49
Viale Morin 91,attraction,http://tour-pedia.org/api/getPlaceDetails?id=188067,188067,43.950826,10.176674,Tuscany,Take Away & Friends,1.0,4db1f343cda14b702a51ab7b,5.0,http://tour-pedia.org/api/getReviewsByPlaceId?placeId=188067,Bar,Nightlife,0.49
,attraction,http://tour-pedia.org/api/getPlaceDetails?id=188078,188078,43.942833712362,10.182721783682,Tuscany,BamBuBar,4.0,4c588be7f346c928577e4aca,9.0,http://tour-pedia.org/api/getReviewsByPlaceId?placeId=188078,Cocktail Bar,Nightlife,0.49
P.za d'Annunzio,attraction,http://tour-pedia.org/api/getPlaceDetails?id=188081,188081,43.937272,10.191151,Tuscany,Café Turandot,1.0,502971b1e4b0be6a06904935,10.0,http://tour-pedia.org/api/getReviewsByPlaceId?placeId=188081,Bar,Nightlife,0.49
Via Roma,attraction,http://tour-pedia.org/api/getPlaceDetails?id=188084,188084,43.938061697284,10.187871128543,Tuscany,Zanzibar,2.0,4c55c482fd2ea593a2994d2c,8.0,http://tour-pedia.org/api/getReviewsByPlaceId?placeId=188084,Cocktail Bar,Nightlife,0.49
,attraction,http://tour-pedia.org/api/getPlaceDetails?id=188155,188155,43.959573,10.21504,Tuscany,Avio,2.0,4e0e30b0e4cd27fc7d2d3adb,5.0,http://tour-pedia.org/api/getReviewsByPlaceId?placeId=188155,Bar,Nightlife,0.49
Piazza XXIV Maggio,attraction,http://tour-pedia.org/api/getPlaceDetails?id=188174,188174,43.926997265949,10.200513190801,Tuscany,Caffè Margherita,3.0,4de01ec0d164e323c7a47261,5.0,http://tour-pedia.org/api/getReviewsByPlaceId?placeId=188174,Bar,Nightlife,0.49
,attraction,http://tour-pedia.org/api/getPlaceDetails?id=188180,188180,43.927837410962,10.199686749857,Tuscany,Lo Studio,5.0,4c5738c17329c9288b608e80,4.0,http://tour-pedia.org/api/getReviewsByPlaceId?placeId=188180,Cocktail Bar,Nightlife,0.49
,attraction,http://tour-pedia.org/api/getPlaceDetails?id=188187,188187,43.927306969752,10.198964304477,Tuscany,Vialeroma Bar Gelateria,1.0,4fca8c99e4b0c116824860da,5.0,http://tour-pedia.org/api/getReviewsByPlaceId?placeId=188187,Bar,Nightlife,0.49
,attraction,http://tour-pedia.org/api/getPlaceDetails?id=188189,188189,43.924414159021,10.20282288777,Tuscany,Bar Zenzero,2.0,4c14075977cea59311f4cf60,3.0,http://tour-pedia.org/api/getReviewsByPlaceId?placeId=188189,Cocktail Bar,Nightlife,0.49
Viale Roma 293,attraction,http://tour-pedia.org/api/getPlaceDetails?id=188193,188193,43.921836508943,10.20340853139,Tuscany,Lemonbar,6.0,4e289d1dc65ba11f4c5e493a,7.0,http://tour-pedia.org/api/getReviewsByPlaceId?placeId=188193,Cocktail Bar,Nightlife,0.49
,attraction,http://tour-pedia.org/api/getPlaceDetails?id=188256,188256,43.95671081543,10.230539321899,Tuscany,bar avio,2.0,51030b9de4b040a87f79aa85,8.0,http://tour-pedia.org/api/getReviewsByPlaceId?placeId=188256,Bar,Nightlife,0.88
,attraction,http://tour-pedia.org/api/getPlaceDetails?id=188259,188259,43.958871,10.229032,Tuscany,Champagneri,1.0,4e0f6bf11f6e9964ea2cf071,8.0,http://tour-pedia.org/api/getReviewsByPlaceId?placeId=188259,Wine Bar,Nightlife,0.88
Piazza Giosuè Carducci 22,attraction,http://tour-pedia.org/api/getPlaceDetails?id=188268,188268,43.956687,10.230711,Tuscany,Rocca Di Sala,1.0,5172f592e4b0ecc0a7c2236f,5.0,http://tour-pedia.org/api/getReviewsByPlaceId?placeId=188268,Bar,Nightlife,0.88
,attraction,http://tour-pedia.org/api/getPlaceDetails?id=188284,188284,43.908989417857,10.21979717254,Tuscany,Liu'2,1.0,4c6db25dd5c3a1cdd246c62b,5.0,http://tour-pedia.org/api/getReviewsByPlaceId?placeId=188284,Cocktail Bar,Nightlife,0.88
"Viale Colombo, 498",attraction,http://tour-pedia.org/api/getPlaceDetails?id=188329,188329,43.901748,10.21955228,Tuscany,Arlecchino Snack Bar,4.0,4d288abff7a9224ba1e8f59f,5.0,http://tour-pedia.org/api/getReviewsByPlaceId?placeId=188329,Cocktail Bar,Nightlife,0.0
Via Primo Maggio,attraction,http://tour-pedia.org/api/getPlaceDetails?id=188355,188355,43.957358766271,10.232662785548,Tuscany,La Mariposa gelateria,1.0,51c5f862498e6ebbd872c7fc,5.0,http://tour-pedia.org/api/getReviewsByPlaceId?placeId=188355,Bar,Nightlife,0.0
Viale Colombo,attraction,http://tour-pedia.org/api/getPlaceDetails?id=188395,188395,43.889619701867,10.229263901711,Tuscany,Cosmopolitan,17.0,4c0acd4b6071a5933841e032,5.0,http://tour-pedia.org/api/getReviewsByPlaceId?placeId=188395,Cocktail Bar,Nightlife,0.0
,attraction,http://tour-pedia.org/api/getPlaceDetails?id=188396,188396,43.890264325378,10.22990884038,Tuscany,Il Pinolo,6.0,4d5adb1c1d6cf04d9e6d46fe,7.0,http://tour-pedia.org/api/getReviewsByPlaceId?placeId=188396,Cocktail Bar,Nightlife,0.0
Viale a mare,attraction,http://tour-pedia.org/api/getPlaceDetails?id=188400,188400,43.890224707393,10.227642237723,Tuscany,Beach Bar,1.0,517965f6498e4d1150ea7f77,10.0,http://tour-pedia.org/api/getReviewsByPlaceId?placeId=188400,Cocktail Bar,Nightlife,0.0
Viale Colombo 17,attraction,http://tour-pedia.org/api/getPlaceDetails?id=188402,188402,43.889539,10.229615,Tuscany,Tandem Bar,1.0,51c34c7a498e37f16efb83a0,5.0,http://tour-pedia.org/api/getReviewsByPlaceId?placeId=188402,Bar,Nightlife,0.0
via roma 43,attraction,http://tour-pedia.org/api/getPlaceDetails?id=188405,188405,43.89209389765,10.230814218521,Tuscany,Residenza D'Epoca Hotel I Pini,3.0,4ecf7e9b00391535cc87c099,3.0,http://tour-pedia.org/api/getReviewsByPlaceId?placeId=188405,Hotel Bar,Nightlife,0.0
,attraction,http://tour-pedia.org/api/getPlaceDetails?id=188467,188467,43.888350474655,10.244681495575,Tuscany,Flamingo,1.0,4d87aea181fdb1f7a6a13dc0,5.0,http://tour-pedia.org/api/getReviewsByPlaceId?placeId=188467,Cocktail Bar,Nightlife,0.0
,attraction,http://tour-pedia.org/api/getPlaceDetails?id=188479,188479,43.895083,10.239209,Tuscany,Hotel Palma,1.0,4e341731aeb7226862635e65,0.0,http://tour-pedia.org/api/getReviewsByPlaceId?placeId=188479,Hotel Bar,Nightlife,0.0
,attraction,http://tour-pedia.org/api/getPlaceDetails?id=188504,188504,43.878010511398,10.236839,Tuscany,Fanatiko,9.0,4c73eb9e2db5236a22c9b879,5.0,http://tour-pedia.org/api/getReviewsByPlaceId?placeId=188504,Bar,Nightlife,0.0
,attraction,http://tour-pedia.org/api/getPlaceDetails?id=188532,188532,43.870609287198,10.246362601591,Tuscany,Pasticceria caffetteria Mantovani,5.0,4f7c14dae4b04f0338109b04,6.0,http://tour-pedia.org/api/getReviewsByPlaceId?placeId=188532,Bar,Nightlife,0.0
,attraction,http://tour-pedia.org/api/getPlaceDetails?id=188537,188537,43.868207,10.245849,Tuscany,Bar Shelley,2.0,4d963bc797d06ea82734fe0a,5.0,http://tour-pedia.org/api/getReviewsByPlaceId?placeId=188537,Cocktail Bar,Nightlife,0.72
,attraction,http://tour-pedia.org/api/getPlaceDetails?id=188548,188548,43.863883583757,10.243263258158,Tuscany,Club Nautico,1.0,4e4d635f7d8b4ee35c6018fe,5.0,http://tour-pedia.org/api/getReviewsByPlaceId?placeId=188548,Bar,Nightlife,0.72
Via Garibaldi,attraction,http://tour-pedia.org/api/getPlaceDetails?id=188549,188549,43.866697961489,10.248476349917,Tuscany,Caffè Vip,4.0,4d18dd88bb64224be568ca65,4.0,http://tour-pedia.org/api/getReviewsByPlaceId?placeId=188549,Cocktail Bar,Nightlife,0.72
,attraction,http://tour-pedia.org/api/getPlaceDetails?id=188552,188552,43.863726,10.247973,Tuscany,Polpo,1.0,4d5709f0cf1b37047e05c73f,5.0,http://tour-pedia.org/api/getReviewsByPlaceId?placeId=188552,Cocktail Bar,Nightlife,0.72
,attraction,http://tour-pedia.org/api/getPlaceDetails?id=188563,188563,43.861968,10.244637,Tuscany,Red Lion Viareggio,1.0,4c3a0464dfb0e21e2f63b1a8,5.0,http://tour-pedia.org/api/getReviewsByPlaceId?placeId=188563,Bar,Nightlife,0.72
,attraction,http://tour-pedia.org/api/getPlaceDetails?id=188598,188598,43.921469999585,10.261066785237,Tuscany,Caffè Biagi,2.0,4f754e3be4b06c81e0987b9b,8.0,http://tour-pedia.org/api/getReviewsByPlaceId?placeId=188598,Bar,Nightlife,0.64
VIA vespucci,attraction,http://tour-pedia.org/api/getPlaceDetails?id=188625,188625,43.874253,10.244738,Tuscany,Boutique Del Cocomero,7.0,4c71a0820e23b1f789cc1bdc,4.0,http://tour-pedia.org/api/getReviewsByPlaceId?placeId=188625,Bar,Nightlife,0.64
Via Regia 144,attraction,http://tour-pedia.org/api/getPlaceDetails?id=188638,188638,43.867288,10.254573,Tuscany,Club Negroni,3.0,4d52fd923062a1cda04777a3,3.0,http://tour-pedia.org/api/getReviewsByPlaceId?placeId=188638,Cocktail Bar,Nightlife,0.64
,attraction,http://tour-pedia.org/api/getPlaceDetails?id=188644,188644,43.848435,10.246982574463,Tuscany,El Beso,7.0,4d81611a21c0b60ce099d96f,5.0,http://tour-pedia.org/api/getReviewsByPlaceId?placeId=188644,Cocktail Bar,Nightlife,0.64
,attraction,http://tour-pedia.org/api/getPlaceDetails?id=188676,188676,43.862605848703,10.252709473273,Tuscany,Chiosco Garofano,1.0,4e536de918381367472e1044,5.0,http://tour-pedia.org/api/getReviewsByPlaceId?placeId=188676,Bar,Nightlife,0.64
,attraction,http://tour-pedia.org/api/getPlaceDetails?id=188709,188709,43.870759857385,10.247682319409,Tuscany,monia & clay,1.0,4f9e5a70e4b0ef2f722ee89c,5.0,http://tour-pedia.org/api/getReviewsByPlaceId?placeId=188709,Bar,Nightlife,0.64
via Battisti,attraction,http://tour-pedia.org/api/getPlaceDetails?id=188715,188715,43.870466669676,10.246839011993,Tuscany,Pick Bar,1.0,51671fb5e4b07ed531b41e61,5.0,http://tour-pedia.org/api/getReviewsByPlaceId?placeId=188715,Bar,Nightlife,0.64
,attraction,http://tour-pedia.org/api/getPlaceDetails?id=188737,188737,43.855044,10.259897,Tuscany,Bar Paninoteca,1.0,5065957b498e20f4234c8655,5.0,http://tour-pedia.org/api/getReviewsByPlaceId?placeId=188737,Bar,Nightlife,0.49
Viale Europa 9,attraction,http://tour-pedia.org/api/getPlaceDetails?id=188763,188763,43.825537058255,10.257547795773,Tuscany,Adagio the Lounge,3.0,4df3e190483bdb5e1375fa8a,8.0,http://tour-pedia.org/api/getReviewsByPlaceId?placeId=188763,Cocktail Bar,Nightlife,0.49
Viale Europa,attraction,http://tour-pedia.org/api/getPlaceDetails?id=188806,188806,43.821132286198,10.259199192173,Tuscany,Priscilla Caffè,1.0,4c0a3ee6a1b32d7f09f598f0,0.0,http://tour-pedia.org/api/getReviewsByPlaceId?placeId=188806,Gay Bar,Nightlife,0.49
,attraction,http://tour-pedia.org/api/getPlaceDetails?id=188888,188888,43.672939,10.272323,Tuscany,Il Barrino,5.0,4c82f8ac47cc224b37918b9f,6.0,http://tour-pedia.org/api/getReviewsByPlaceId?placeId=188888,Bar,Nightlife,0.49
,attraction,http://tour-pedia.org/api/getPlaceDetails?id=188906,188906,43.668978,10.275215,Tuscany,Circolo Endas,1.0,517c17a7498ea1b609ec8d38,0.0,http://tour-pedia.org/api/getReviewsByPlaceId?placeId=188906,Bar,Nightlife,0.49
40/a Via Litoranea,attraction,http://tour-pedia.org/api/getPlaceDetails?id=188997,188997,43.649357769231,10.284642343422,Tuscany,Sunset Café,18.0,4c0180ffb45676b0e952e180,6.0,http://tour-pedia.org/api/getReviewsByPlaceId?placeId=188997,Cocktail Bar,Nightlife,0.67
,attraction,http://tour-pedia.org/api/getPlaceDetails?id=189061,189061,43.938483,10.304073,Tuscany,Van Gog,1.0,50607d2ee4b0fd143d9bcd64,5.0,http://tour-pedia.org/api/getReviewsByPlaceId?placeId=189061,Karaoke Bar,Nightlife,0.67
Via Vittorio Emanuele,attraction,http://tour-pedia.org/api/getPlaceDetails?id=189065,189065,43.937227,10.30493,Tuscany,Bar Cecilia,1.0,4de3b6168877bcb68661e58c,0.0,http://tour-pedia.org/api/getReviewsByPlaceId?placeId=189065,Bar,Nightlife,0.67
,attraction,http://tour-pedia.org/api/getPlaceDetails?id=189121,189121,43.626811,10.291543,Tuscany,Paradise,1.0,4c0130b99a950f4735ae08c6,0.0,http://tour-pedia.org/api/getReviewsByPlaceId?placeId=189121,Karaoke Bar,Nightlife,0.67
,attraction,http://tour-pedia.org/api/getPlaceDetails?id=189173,189173,43.554700865688,10.306503487816,Tuscany,Il Viandante,2.0,4da9eea2fa8cc7649727dda6,10.0,http://tour-pedia.org/api/getReviewsByPlaceId?placeId=189173,Wine Bar,Nightlife,0.49
"Via Malenchini Vincenzo, 35",attraction,http://tour-pedia.org/api/getPlaceDetails?id=189211,189211,43.547474990974,10.305390357971,Tuscany,Alcatraz,2.0,50099e1ce4b05322f0d577d5,5.0,http://tour-pedia.org/api/getReviewsByPlaceId?placeId=189211,Cocktail Bar,Nightlife,0.51
"Via San Giovanni, 57123 Livorno LI",attraction,http://tour-pedia.org/api/getPlaceDetails?id=189220,189220,43.55203210787,10.307955607339,Tuscany,Caffè Mamà,1.0,4f7c4c05e4b043bd2b4182ae,10.0,http://tour-pedia.org/api/getReviewsByPlaceId?placeId=189220,Bar,Nightlife,0.51
,attraction,http://tour-pedia.org/api/getPlaceDetails?id=189296,189296,43.547241137446,10.313325913948,Tuscany,Oro Nero,1.0,52336514498eb9c485e5607b,5.0,http://tour-pedia.org/api/getReviewsByPlaceId?placeId=189296,Bar,Nightlife,0.51
,attraction,http://tour-pedia.org/api/getPlaceDetails?id=189299,189299,43.551166,10.313364,Tuscany,Ex Victor,2.0,4e3302f8b61cd25ad4a40eee,8.0,http://tour-pedia.org/api/getReviewsByPlaceId?placeId=189299,Wine Bar,Nightlife,0.51
"Via Leonardo Cambini, 1-3",attraction,http://tour-pedia.org/api/getPlaceDetails?id=189305,189305,43.543127882161,10.313930511475,Tuscany,Cantina Nardi,6.0,4ccc5d99b571b60c4349d265,6.0,http://tour-pedia.org/api/getReviewsByPlaceId?placeId=189305,Wine Bar,Nightlife,0.51
Via Porta Rossa 63/r,attraction,http://tour-pedia.org/api/getPlaceDetails?id=189339,189339,44.1840362,10.3230079,Tuscany,Slowly Café,2.0,50714662e4b0e0df92fb7b37,5.0,http://tour-pedia.org/api/getReviewsByPlaceId?placeId=189339,Cocktail Bar,Nightlife,0.51
Via Del Lavoro,attraction,http://tour-pedia.org/api/getPlaceDetails?id=189351,189351,43.560864,10.314033,Tuscany,Bar Bamboo,1.0,4e78e203d1646aa04d7ddc43,0.0,http://tour-pedia.org/api/getReviewsByPlaceId?placeId=189351,Bar,Nightlife,0.51
"Via Ernesto Rossi, 37, 57125 Livorno LI",attraction,http://tour-pedia.org/api/getPlaceDetails?id=189368,189368,43.547013772765,10.313298513609,Tuscany,Mariposa American Bar,2.0,4f7b3fc7e4b00fc6db6fad4f,5.0,http://tour-pedia.org/api/getReviewsByPlaceId?placeId=189368,Wine Bar,Nightlife,0.51
,attraction,http://tour-pedia.org/api/getPlaceDetails?id=189464,189464,43.544949374387,10.313747880231,Tuscany,Champagneria,1.0,4e67ace01f6ecb18da6731cd,5.0,http://tour-pedia.org/api/getReviewsByPlaceId?placeId=189464,Cocktail Bar,Nightlife,0.51
,attraction,http://tour-pedia.org/api/getPlaceDetails?id=189580,189580,43.537975311279,10.334637641907,Tuscany,57100,1.0,50a7f80de4b044e8ac0de8fa,5.0,http://tour-pedia.org/api/getReviewsByPlaceId?placeId=189580,Cocktail Bar,Nightlife,0.51
"Via della Padula, 57124 Livorno LI",attraction,http://tour-pedia.org/api/getPlaceDetails?id=189588,189588,43.54499666562,10.336367078321,Tuscany,caffetteria da Boris,1.0,4f81520be4b06fa5171fd74c,5.0,http://tour-pedia.org/api/getReviewsByPlaceId?placeId=189588,Bar,Nightlife,0.51
,attraction,http://tour-pedia.org/api/getPlaceDetails?id=189603,189603,43.489781107959,10.327191558451,Tuscany,La Baracchina Azzurra,2.0,4e6c9d2b8877ce95980cfaca,8.0,http://tour-pedia.org/api/getReviewsByPlaceId?placeId=189603,Bar,Nightlife,0.51
,attraction,http://tour-pedia.org/api/getPlaceDetails?id=189771,189771,43.690275796814,10.367255002044,Tuscany,La Bettola,2.0,4d72363eec075481bc9085bf,8.0,http://tour-pedia.org/api/getReviewsByPlaceId?placeId=189771,Whisky Bar,Nightlife,0.51
Via delle Lenze,attraction,http://tour-pedia.org/api/getPlaceDetails?id=189798,189798,43.716,10.372585,Tuscany,Nepi Bar,1.0,4eb407ce7ee5024d7e64a5ad,5.0,http://tour-pedia.org/api/getReviewsByPlaceId?placeId=189798,Wine Bar,Nightlife,0.51
Via Nino Pisano,attraction,http://tour-pedia.org/api/getPlaceDetails?id=189850,189850,43.708789279655,10.385209288309,Tuscany,Bar Livorno,5.0,4bdb7d6b2a3a0f47186bafb6,3.0,http://tour-pedia.org/api/getReviewsByPlaceId?placeId=189850,Bar,Nightlife,0.51
via S.Maria 60/62,attraction,http://tour-pedia.org/api/getPlaceDetails?id=189923,189923,43.720304,10.397127,Tuscany,Bar & Food 62,7.0,4ca1115554c8a1cdcb08a54b,6.0,http://tour-pedia.org/api/getReviewsByPlaceId?placeId=189923,Bar,Nightlife,0.59
,attraction,http://tour-pedia.org/api/getPlaceDetails?id=189932,189932,43.722689660408,10.396584741155,Tuscany,Bar Duomo,3.0,5072e7aee4b05fb6c4b4ecc1,3.0,http://tour-pedia.org/api/getReviewsByPlaceId?placeId=189932,Bar,Nightlife,0.62
"Via Corsica, 8, 56126 Pisa PI",attraction,http://tour-pedia.org/api/getPlaceDetails?id=189933,189933,43.719577430005,10.399223129102,Tuscany,Caffè Dei Cavalieri,1.0,4f705023e4b06892a208271f,5.0,http://tour-pedia.org/api/getReviewsByPlaceId?placeId=189933,Bar,Nightlife,0.62
"Piazza Sant'Omobono, 11",attraction,http://tour-pedia.org/api/getPlaceDetails?id=190029,190029,43.717522314843,10.401587321672,Tuscany,Mani'omio,13.0,4c7bff4da8683704ea0a184d,5.0,http://tour-pedia.org/api/getReviewsByPlaceId?placeId=190029,Cocktail Bar,Nightlife,0.79
Via Cardinale Maffi,attraction,http://tour-pedia.org/api/getPlaceDetails?id=190036,190036,43.722285,10.40154,Tuscany,Bar San Domenico,3.0,4e0383461495525ce2c817a2,2.0,http://tour-pedia.org/api/getReviewsByPlaceId?placeId=190036,Cocktail Bar,Nightlife,0.79
"Via Domenico Cavalca, 18",attraction,http://tour-pedia.org/api/getPlaceDetails?id=190040,190040,43.717305,10.401094,Tuscany,Modus Bibendi,7.0,4c8aafd71eafb1f7949a7c35,6.0,http://tour-pedia.org/api/getReviewsByPlaceId?placeId=190040,Wine Bar,Nightlife,0.8
"Piazza del Pozzetto, 6",attraction,http://tour-pedia.org/api/getPlaceDetails?id=190046,190046,43.716414865249,10.402330756187,Tuscany,Gap,1.0,4d643316897a224b37d61dcf,5.0,http://tour-pedia.org/api/getReviewsByPlaceId?placeId=190046,Cocktail Bar,Nightlife,0.0
Via del Carmine 3,attraction,http://tour-pedia.org/api/getPlaceDetails?id=190049,190049,43.712715,10.40187,Tuscany,Caino Caffè Contemporaneo,6.0,4be11076c1732d7f95375b9a,6.0,http://tour-pedia.org/api/getReviewsByPlaceId?placeId=190049,Cocktail Bar,Nightlife,0.64
,attraction,http://tour-pedia.org/api/getPlaceDetails?id=190061,190061,43.703054647708,10.403957061554,Tuscany,Al Barrino In San Marco,3.0,4bf81df8b182c9b62ee3765a,7.0,http://tour-pedia.org/api/getReviewsByPlaceId?placeId=190061,Bar,Nightlife,0.64
Via Dei Rigattieri,attraction,http://tour-pedia.org/api/getPlaceDetails?id=190065,190065,43.716098549551,10.400007529537,Tuscany,Viavai,1.0,523a347411d28bccea24200b,5.0,http://tour-pedia.org/api/getReviewsByPlaceId?placeId=190065,Cocktail Bar,Nightlife,0.64
Strada Provinciale,attraction,http://tour-pedia.org/api/getPlaceDetails?id=190075,190075,44.14816846713,10.410463193966,Tuscany,Trend Café,1.0,51c6f733498e0c20ec2ea64f,0.0,http://tour-pedia.org/api/getReviewsByPlaceId?placeId=190075,Cocktail Bar,Nightlife,0.64
Piazza della Repubblica,attraction,http://tour-pedia.org/api/getPlaceDetails?id=190100,190100,44.106832175595,10.409739017487,Tuscany,Bar Aurora,2.0,4e62666481dc804fc901fd9f,5.0,http://tour-pedia.org/api/getReviewsByPlaceId?placeId=190100,Bar,Nightlife,0.62
Piazza C. Gambacorti 43,attraction,http://tour-pedia.org/api/getPlaceDetails?id=190129,190129,43.714198,10.40140432,Tuscany,Chicchessia,11.0,4c780327794e224b4fb26028,5.0,http://tour-pedia.org/api/getReviewsByPlaceId?placeId=190129,Cocktail Bar,Nightlife,0.62
,attraction,http://tour-pedia.org/api/getPlaceDetails?id=190130,190130,43.714253832903,10.40163669062,Tuscany,Pane E Vino,1.0,4fa03fb4e4b0f8dae0dd6edc,5.0,http://tour-pedia.org/api/getReviewsByPlaceId?placeId=190130,Dive Bar,Nightlife,0.62
Via del Sorriso 16,attraction,http://tour-pedia.org/api/getPlaceDetails?id=190216,190216,43.410969,10.405269,Tuscany,Le Café Dai Dai,12.0,4c1908d94ff90f47534d0f49,7.0,http://tour-pedia.org/api/getReviewsByPlaceId?placeId=190216,Cocktail Bar,Nightlife,0.62
Piazza della Vittoria 8,attraction,http://tour-pedia.org/api/getPlaceDetails?id=190234,190234,43.4052398,10.410149,Tuscany,Bar La Piazzetta,2.0,4d650fca36a96dcb3b4757f4,4.0,http://tour-pedia.org/api/getReviewsByPlaceId?placeId=190234,Bar,Nightlife,0.62
,attraction,http://tour-pedia.org/api/getPlaceDetails?id=190235,190235,43.405803,10.409136,Tuscany,Havana Mambo,2.0,4c5db0176147be9a1ac59209,5.0,http://tour-pedia.org/api/getReviewsByPlaceId?placeId=190235,Bar,Nightlife,0.62
V. Marconi,attraction,http://tour-pedia.org/api/getPlaceDetails?id=190242,190242,43.40295848536,10.410726070404,Tuscany,Hotel Miramare***,3.0,4dde8d61fa769803ef946ecd,7.0,http://tour-pedia.org/api/getReviewsByPlaceId?placeId=190242,Cocktail Bar,Nightlife,0.62
Via Corcos,attraction,http://tour-pedia.org/api/getPlaceDetails?id=190253,190253,43.40270904741,10.410318374634,Tuscany,Terrazza Miramare,2.0,4fb3a77a754aa200e14fb551,3.0,http://tour-pedia.org/api/getReviewsByPlaceId?placeId=190253,Wine Bar,Nightlife,0.62
Piazza Donati 11,attraction,http://tour-pedia.org/api/getPlaceDetails?id=190299,190299,43.71801178884,10.401773826729,Tuscany,Vintage,3.0,50f30a25e4b0a4702bfe6096,7.0,http://tour-pedia.org/api/getReviewsByPlaceId?placeId=190299,Cocktail Bar,Nightlife,0.95
,attraction,http://tour-pedia.org/api/getPlaceDetails?id=190300,190300,43.717241068838,10.401197856467,Tuscany,L'Amuri,2.0,4f53cec0e4b07e4c642cecf5,8.0,http://tour-pedia.org/api/getReviewsByPlaceId?placeId=190300,Wine Bar,Nightlife,0.95
Piazza Delle Vettovaglie,attraction,http://tour-pedia.org/api/getPlaceDetails?id=190301,190301,43.716994,10.401942,Tuscany,Urban Cafè,2.0,51100db9e4b0e2f94d6c7a4e,5.0,http://tour-pedia.org/api/getReviewsByPlaceId?placeId=190301,Cocktail Bar,Nightlife,0.0
,attraction,http://tour-pedia.org/api/getPlaceDetails?id=190302,190302,43.717005365564,10.401762855832,Tuscany,Cecco Rivolta,4.0,4c852ad8d34ca14318be4480,9.0,http://tour-pedia.org/api/getReviewsByPlaceId?placeId=190302,Wine Bar,Nightlife,0.54
Piazza Sant'Omobono,attraction,http://tour-pedia.org/api/getPlaceDetails?id=190303,190303,43.717395575126,10.401378875298,Tuscany,Culture Club,1.0,51201e89e4b0e893fa648a17,0.0,http://tour-pedia.org/api/getReviewsByPlaceId?placeId=190303,Wine Bar,Nightlife,0.54
Borgo stretto,attraction,http://tour-pedia.org/api/getPlaceDetails?id=190307,190307,43.717122057785,10.402344315171,Tuscany,Casino Dei Nobili,1.0,4df299fc1f6e818dadfded68,5.0,http://tour-pedia.org/api/getReviewsByPlaceId?placeId=190307,Bar,Nightlife,0.54
"Borgo Stretto, 43",attraction,http://tour-pedia.org/api/getPlaceDetails?id=190308,190308,43.717605,10.402109,Tuscany,Bar Ritz,3.0,4da87cdefa8c4175d0bb0df5,6.0,http://tour-pedia.org/api/getReviewsByPlaceId?placeId=190308,Wine Bar,Nightlife,0.54
,attraction,http://tour-pedia.org/api/getPlaceDetails?id=190322,190322,43.71096159898,10.409360519758,Tuscany,Scalette Arno Vivo Con Sasà All'ingresso,1.0,5026e70be4b0d0acd2beecce,5.0,http://tour-pedia.org/api/getReviewsByPlaceId?placeId=190322,Cocktail Bar,Nightlife,0.54
,attraction,http://tour-pedia.org/api/getPlaceDetails?id=190335,190335,43.694043,10.427171,Tuscany,Casa Viti,1.0,4e5bd0501495a891129d834f,5.0,http://tour-pedia.org/api/getReviewsByPlaceId?placeId=190335,Gay Bar,Nightlife,0.54
,attraction,http://tour-pedia.org/api/getPlaceDetails?id=190394,190394,43.710449878342,10.430357520181,Tuscany,Caffe' Lilli In,1.0,5268d9fa11d2da5642bb4af3,5.0,http://tour-pedia.org/api/getReviewsByPlaceId?placeId=190394,Bar,Nightlife,0.54
Lungo Mare Caletta,attraction,http://tour-pedia.org/api/getPlaceDetails?id=190422,190422,43.399938,10.425295,Tuscany,La belle Epoque,1.0,4dcd6baefa7664b7c68e069d,10.0,http://tour-pedia.org/api/getReviewsByPlaceId?placeId=190422,Cocktail Bar,Nightlife,0.9
,attraction,http://tour-pedia.org/api/getPlaceDetails?id=190425,190425,43.396335,10.427581,Tuscany,Uscio e Bottega,1.0,50215bbde4b07ad8359bf22e,2.0,http://tour-pedia.org/api/getReviewsByPlaceId?placeId=190425,Wine Bar,Nightlife,0.9
"Via Berlinguer, 66",attraction,http://tour-pedia.org/api/getPlaceDetails?id=190491,190491,43.391075194566,10.432755448569,Tuscany,Il Tamarindo,4.0,4e3c7ba4a809ba757bfd5d05,5.0,http://tour-pedia.org/api/getReviewsByPlaceId?placeId=190491,Cocktail Bar,Nightlife,0.9
,attraction,http://tour-pedia.org/api/getPlaceDetails?id=190496,190496,43.391525,10.428561,Tuscany,La Banchisa Rosignano Marittimo,1.0,52179bb811d22a75dd8c07d5,0.0,http://tour-pedia.org/api/getReviewsByPlaceId?placeId=190496,Cocktail Bar,Nightlife,0.9
Via S. Sisto 10,attraction,http://tour-pedia.org/api/getPlaceDetails?id=190547,190547,43.708601725334,10.454692840576,Tuscany,Circolo ARCI S. Sisto,1.0,51d1da5b498e11f87662cf4d,5.0,http://tour-pedia.org/api/getReviewsByPlaceId?placeId=190547,Bar,Nightlife,0.9
Via Fonda,attraction,http://tour-pedia.org/api/getPlaceDetails?id=190550,190550,43.694133758545,10.445713043213,Tuscany,circolo mcl oratoio,1.0,4fc54701e4b087a3e335689c,5.0,http://tour-pedia.org/api/getReviewsByPlaceId?placeId=190550,Bar,Nightlife,0.9
Via Piastroni,attraction,http://tour-pedia.org/api/getPlaceDetails?id=190554,190554,43.696125244244,10.449822624684,Tuscany,Circolo Arci Riglione,1.0,4e234e871838712abe864628,5.0,http://tour-pedia.org/api/getReviewsByPlaceId?placeId=190554,Bar,Nightlife,0.9
Via Telesio 3/5,attraction,http://tour-pedia.org/api/getPlaceDetails?id=190663,190663,43.352246,10.452663,Tuscany,Bar Tirreno,2.0,4db8422893a04a7c307c57ee,5.0,http://tour-pedia.org/api/getReviewsByPlaceId?placeId=190663,Bar,Nightlife,0.9
Via Lungomare 11,attraction,http://tour-pedia.org/api/getPlaceDetails?id=190673,190673,43.350444755489,10.451817512512,Tuscany,"Cafè Lido Vada - Breakfast, Lunch, Happy Hour, Aperitif",1.0,4fd51ab54fc6d22ca99748a0,5.0,http://tour-pedia.org/api/getReviewsByPlaceId?placeId=190673,Cocktail Bar,Nightlife,0.9
"Via Della Repubblica, 140/142",attraction,http://tour-pedia.org/api/getPlaceDetails?id=190716,190716,44.047325762773,10.475753295268,Tuscany,Antico Caffè Centrale... Il Sogno,2.0,4f2407ffe4b0d609c6131c84,7.0,http://tour-pedia.org/api/getReviewsByPlaceId?placeId=190716,Bar,Nightlife,0.9
Piazzale Giacomo Matteotti,attraction,http://tour-pedia.org/api/getPlaceDetails?id=190787,190787,44.07456482607,10.482577514949,Tuscany,Bar sport (Bar ROMA),1.0,4fdcfe7ce4b01dfebfab6bf7,5.0,http://tour-pedia.org/api/getReviewsByPlaceId?placeId=190787,Bar,Nightlife,0.9
Viale Europa,attraction,http://tour-pedia.org/api/getPlaceDetails?id=190888,190888,43.835421,10.494569,Tuscany,Bar Nelli,3.0,4c87aaaed92ea09390f07772,5.0,http://tour-pedia.org/api/getReviewsByPlaceId?placeId=190888,Bar,Nightlife,0.9
,attraction,http://tour-pedia.org/api/getPlaceDetails?id=190952,190952,43.848538029046,10.496458112799,Tuscany,The Tube,1.0,4d28f3736e27a14330a41f24,5.0,http://tour-pedia.org/api/getReviewsByPlaceId?placeId=190952,Bar,Nightlife,0.9
,attraction,http://tour-pedia.org/api/getPlaceDetails?id=190961,190961,43.842962,10.499925,Tuscany,Il Bar Zero,7.0,4c1f76bb63750f471524bb67,5.0,http://tour-pedia.org/api/getReviewsByPlaceId?placeId=190961,Bar,Nightlife,-0.38
S. Concordio,attraction,http://tour-pedia.org/api/getPlaceDetails?id=190971,190971,43.838401483696,10.498665585698,Tuscany,Ultima Spiaggia,1.0,51a6537b498e3321c0d7200d,5.0,http://tour-pedia.org/api/getReviewsByPlaceId?placeId=190971,Wine Bar,Nightlife,-0.38
,attraction,http://tour-pedia.org/api/getPlaceDetails?id=190999,190999,43.815846,10.49652,Tuscany,Bar Pacini,1.0,4d3836c5803ba35de6b199fc,5.0,http://tour-pedia.org/api/getReviewsByPlaceId?placeId=190999,Bar,Nightlife,-0.38
,attraction,http://tour-pedia.org/api/getPlaceDetails?id=191039,191039,43.303248248537,10.486914975228,Tuscany,Bar Il Porticciolo,7.0,4dc691291f6ef43b8a315e8d,4.0,http://tour-pedia.org/api/getReviewsByPlaceId?placeId=191039,Bar,Nightlife,-0.38
Via della Fortezza,attraction,http://tour-pedia.org/api/getPlaceDetails?id=191040,191040,43.299998751038,10.490313711456,Tuscany,Bellucci Mauro Bar,2.0,4c8bec1aed3ab60c17e96221,5.0,http://tour-pedia.org/api/getReviewsByPlaceId?placeId=191040,Bar,Nightlife,-0.38
,attraction,http://tour-pedia.org/api/getPlaceDetails?id=191043,191043,43.299112,10.493115,Tuscany,Take Away,4.0,4e10e22ce4cdef074b6f03c9,8.0,http://tour-pedia.org/api/getReviewsByPlaceId?placeId=191043,Bar,Nightlife,-0.38
Via fillungo 188,attraction,http://tour-pedia.org/api/getPlaceDetails?id=191112,191112,43.846507,10.507171,Tuscany,Vinarkia,6.0,4c8a97baa92fa093e1b992bf,4.0,http://tour-pedia.org/api/getReviewsByPlaceId?placeId=191112,Wine Bar,Nightlife,0.21
Via Vittorio Emanuele,attraction,http://tour-pedia.org/api/getPlaceDetails?id=191118,191118,43.840048785971,10.501916488572,Tuscany,Bar Monica,3.0,4c52c24294790f472ed30ea3,8.0,http://tour-pedia.org/api/getReviewsByPlaceId?placeId=191118,Bar,Nightlife,0.65
Corso Garibaldi,attraction,http://tour-pedia.org/api/getPlaceDetails?id=191120,191120,43.840023,10.5018789,Tuscany,Old City Bar,2.0,4cced844b571b60c73ace065,5.0,http://tour-pedia.org/api/getReviewsByPlaceId?placeId=191120,Bar,Nightlife,0.65
"Via del Gonfalone, 1-11",attraction,http://tour-pedia.org/api/getPlaceDetails?id=191121,191121,43.847304,10.508001,Tuscany,Bar Betty Blue,6.0,4c24aec1905a0f47121b6060,6.0,http://tour-pedia.org/api/getReviewsByPlaceId?placeId=191121,Bar,Nightlife,0.65
,attraction,http://tour-pedia.org/api/getPlaceDetails?id=191130,191130,43.841232532438,10.505606842646,Tuscany,aria,1.0,522d970611d2cd273191f1b6,8.0,http://tour-pedia.org/api/getReviewsByPlaceId?placeId=191130,Cocktail Bar,Nightlife,0.65
,attraction,http://tour-pedia.org/api/getPlaceDetails?id=191161,191161,43.653591,10.504153,Tuscany,Circolo Arci Chiesanova,1.0,4e73a9a688778d253b3c2467,5.0,http://tour-pedia.org/api/getReviewsByPlaceId?placeId=191161,Bar,Nightlife,0.65
Viale Galliano,attraction,http://tour-pedia.org/api/getPlaceDetails?id=191186,191186,43.296824097633,10.497259497643,Tuscany,Il Barrino,3.0,4dd947f21838b8561d15157e,5.0,http://tour-pedia.org/api/getReviewsByPlaceId?placeId=191186,Bar,Nightlife,0.65
Viale della Vittoria 58,attraction,http://tour-pedia.org/api/getPlaceDetails?id=191190,191190,43.295542977064,10.496277809143,Tuscany,Donna di Cuori,2.0,4f52aaf6e4b0754d57e583b4,6.0,http://tour-pedia.org/api/getReviewsByPlaceId?placeId=191190,Cocktail Bar,Nightlife,0.65
Viale della Vittoria 101,attraction,http://tour-pedia.org/api/getPlaceDetails?id=191191,191191,43.296016077037,10.496595391897,Tuscany,Bar Terrazza Dei Tirreni,1.0,4d7e0e1e6174a35db98c8103,10.0,http://tour-pedia.org/api/getReviewsByPlaceId?placeId=191191,Bar,Nightlife,0.65
,attraction,http://tour-pedia.org/api/getPlaceDetails?id=191192,191192,43.293715122583,10.498275704769,Tuscany,L'imperfetto,4.0,4dfe6eb745dd1beaf343d9c0,9.0,http://tour-pedia.org/api/getReviewsByPlaceId?placeId=191192,Bar,Nightlife,0.75
,attraction,http://tour-pedia.org/api/getPlaceDetails?id=191193,191193,43.295368354105,10.497155492757,Tuscany,SottoSopra,3.0,4e49912caeb7de71b38c41f5,7.0,http://tour-pedia.org/api/getReviewsByPlaceId?placeId=191193,Bar,Nightlife,0.75
Località Calamoresca,attraction,http://tour-pedia.org/api/getPlaceDetails?id=191211,191211,42.943009599908,10.496567487717,Tuscany,Gattarossa,4.0,4e1f4ccb1fc7259ef8b002a6,6.0,http://tour-pedia.org/api/getReviewsByPlaceId?placeId=191211,Cocktail Bar,Nightlife,0.41
"Viale Giuseppe Giusti, 25",attraction,http://tour-pedia.org/api/getPlaceDetails?id=191235,191235,43.840431477455,10.514634847641,Tuscany,Celide Cocktail-bar,8.0,4ca04f247d69b713d2913cc2,6.0,http://tour-pedia.org/api/getReviewsByPlaceId?placeId=191235,Bar,Nightlife,0.0
Via L.da Vinci 3/5,attraction,http://tour-pedia.org/api/getPlaceDetails?id=191269,191269,43.312806134438,10.516063653875,Tuscany,Dàn Kafe,9.0,4ea449e19911214fd1961062,5.0,http://tour-pedia.org/api/getReviewsByPlaceId?placeId=191269,Sake Bar,Nightlife,0.0
Corso Matteotti 80,attraction,http://tour-pedia.org/api/getPlaceDetails?id=191271,191271,43.312748,10.51641482,Tuscany,Bar Napoli,3.0,4d8721ed7e8ef04d7ffa40be,8.0,http://tour-pedia.org/api/getReviewsByPlaceId?placeId=191271,Bar,Nightlife,0.57
Corso Matteotti 133,attraction,http://tour-pedia.org/api/getPlaceDetails?id=191272,191272,43.311613165332,10.517510175705,Tuscany,Caffè Ruiu,4.0,4d6f96d3b73bb1f739bbac72,5.0,http://tour-pedia.org/api/getReviewsByPlaceId?placeId=191272,Bar,Nightlife,0.0
Vicolo Bargigli,attraction,http://tour-pedia.org/api/getPlaceDetails?id=191299,191299,43.311898178288,10.517667430099,Tuscany,Il Chicco D'uva,1.0,4e0a466822714194998cffd1,5.0,http://tour-pedia.org/api/getReviewsByPlaceId?placeId=191299,Wine Bar,Nightlife,0.0
Corso Matteotti 200,attraction,http://tour-pedia.org/api/getPlaceDetails?id=191388,191388,43.308973442793,10.518798878158,Tuscany,Caffèlatte,1.0,4e3c95d8d164b52911a20c8c,5.0,http://tour-pedia.org/api/getReviewsByPlaceId?placeId=191388,Bar,Nightlife,0.0
Viale Marconi,attraction,http://tour-pedia.org/api/getPlaceDetails?id=191389,191389,43.310910561595,10.518569648266,Tuscany,Bar Esedra,2.0,4e29c4b9ae605c533a253f54,5.0,http://tour-pedia.org/api/getReviewsByPlaceId?placeId=191389,Bar,Nightlife,0.0
Via Nerchi,attraction,http://tour-pedia.org/api/getPlaceDetails?id=191396,191396,43.311864837902,10.518870280688,Tuscany,El cubo del luco,1.0,5091faf1e4b078f92c12f217,5.0,http://tour-pedia.org/api/getReviewsByPlaceId?placeId=191396,Gay Bar,Nightlife,0.0
"Via Fillungo, 170",attraction,http://tour-pedia.org/api/getPlaceDetails?id=191423,191423,44.067157808092,10.529526358706,Tuscany,A Palazzo Busdraghi Lucca,1.0,4ca043777d69b713c3263cc2,0.0,http://tour-pedia.org/api/getReviewsByPlaceId?placeId=191423,Hotel Bar,Nightlife,0.0
Via Carlo Piaggia 385,attraction,http://tour-pedia.org/api/getPlaceDetails?id=191477,191477,43.841619171847,10.528488160581,Tuscany,Reloo Caffè,4.0,4c7fb373e4b06dcb7cc847d7,8.0,http://tour-pedia.org/api/getReviewsByPlaceId?placeId=191477,Bar,Nightlife,0.0
"Viale Giuseppe Giusti, 25",attraction,http://tour-pedia.org/api/getPlaceDetails?id=191478,191478,43.840385047007,10.514441728592,Tuscany,Albergo celide Lucca,1.0,4ca0522a7d69b713a4bc3cc2,10.0,http://tour-pedia.org/api/getReviewsByPlaceId?placeId=191478,Hotel Bar,Nightlife,0.64
,attraction,http://tour-pedia.org/api/getPlaceDetails?id=191479,191479,43.833877440684,10.524379428258,Tuscany,Essenza Ristocaffè,1.0,4cdc34754006a143a446ddb2,0.0,http://tour-pedia.org/api/getReviewsByPlaceId?placeId=191479,Bar,Nightlife,0.64
Via delle Bandiere,attraction,http://tour-pedia.org/api/getPlaceDetails?id=191492,191492,43.7653943,10.52516856,Tuscany,Sweet Cafe Snack Bar,1.0,4e535a4f62e14e02e8b17b6e,10.0,http://tour-pedia.org/api/getReviewsByPlaceId?placeId=191492,Bar,Nightlife,0.64
Corso Italia 70,attraction,http://tour-pedia.org/api/getPlaceDetails?id=191556,191556,42.923088510682,10.527142365685,Tuscany,Big Ben,1.0,4c520a18d797e21e4c93077d,8.0,http://tour-pedia.org/api/getReviewsByPlaceId?placeId=191556,Bar,Nightlife,0.64
,attraction,http://tour-pedia.org/api/getPlaceDetails?id=191558,191558,42.922953,10.527121,Tuscany,Aperitivo Al Bigben,1.0,4e592f0262e1de72f6ee2da5,0.0,http://tour-pedia.org/api/getReviewsByPlaceId?placeId=191558,Cocktail Bar,Nightlife,0.64
,attraction,http://tour-pedia.org/api/getPlaceDetails?id=191615,191615,43.534821867943,10.535159111023,Tuscany,La Fraschetta,1.0,4c8bf7d055fba09373375bab,10.0,http://tour-pedia.org/api/getReviewsByPlaceId?placeId=191615,Bar,Nightlife,0.64
,attraction,http://tour-pedia.org/api/getPlaceDetails?id=191650,191650,43.240807587356,10.530943600509,Tuscany,Il Gabbiano,1.0,4e405698aeb73139a19e3ab6,0.0,http://tour-pedia.org/api/getReviewsByPlaceId?placeId=191650,Bar,Nightlife,0.64
"Località Pineta di Torre Nuova, 2",attraction,http://tour-pedia.org/api/getPlaceDetails?id=191669,191669,43.027933,10.537092,Tuscany,Bar Laguna - Park Albatros,1.0,4fa0f59fa17ce3b22e424ee9,8.0,http://tour-pedia.org/api/getReviewsByPlaceId?placeId=191669,Bar,Nightlife,0.9
Viale del popolo 41,attraction,http://tour-pedia.org/api/getPlaceDetails?id=191698,191698,42.921284598412,10.52980650942,Tuscany,Barrino,1.0,4da0bc932939b1f7e668e556,0.0,http://tour-pedia.org/api/getReviewsByPlaceId?placeId=191698,Cocktail Bar,Nightlife,0.9
,attraction,http://tour-pedia.org/api/getPlaceDetails?id=191729,191729,43.852973,10.54352,Tuscany,Pink Bar,2.0,4d8f7e07fa943704a00e1cc6,5.0,http://tour-pedia.org/api/getReviewsByPlaceId?placeId=191729,Bar,Nightlife,0.9
,attraction,http://tour-pedia.org/api/getPlaceDetails?id=191776,191776,43.069128,10.535052,Tuscany,Nautico Riva Degli Etruschi,1.0,4e581f55a80965586112eaec,0.0,http://tour-pedia.org/api/getReviewsByPlaceId?placeId=191776,Cocktail Bar,Nightlife,0.9
,attraction,http://tour-pedia.org/api/getPlaceDetails?id=191814,191814,43.884445,10.553491,Tuscany,Olimpia,1.0,4d84e0ae9324236a52d9c20e,10.0,http://tour-pedia.org/api/getReviewsByPlaceId?placeId=191814,Bar,Nightlife,0.56
,attraction,http://tour-pedia.org/api/getPlaceDetails?id=191870,191870,43.17671,10.53958,Tuscany,Sconciglio,2.0,50070dc1e4b0d180bafec83e,3.0,http://tour-pedia.org/api/getReviewsByPlaceId?placeId=191870,Wine Bar,Nightlife,0.56
Viale Italia 171,attraction,http://tour-pedia.org/api/getPlaceDetails?id=191874,191874,43.177565677702,10.538788264922,Tuscany,Bar Galleria,2.0,4e4cfce2483b734b807f76b4,8.0,http://tour-pedia.org/api/getReviewsByPlaceId?placeId=191874,Bar,Nightlife,0.56
Piazza del Porto 2,attraction,http://tour-pedia.org/api/getPlaceDetails?id=191900,191900,43.100701082445,10.537865328432,Tuscany,Zanzibar,10.0,4c3040a4452620a162f01e0f,5.0,http://tour-pedia.org/api/getReviewsByPlaceId?placeId=191900,Cocktail Bar,Nightlife,0.56
,attraction,http://tour-pedia.org/api/getPlaceDetails?id=191904,191904,43.101304,10.538506,Tuscany,Hemingway Cafè Latino,2.0,4feb76a7e4b060aa1ae7f940,8.0,http://tour-pedia.org/api/getReviewsByPlaceId?placeId=191904,Cocktail Bar,Nightlife,0.56
,attraction,http://tour-pedia.org/api/getPlaceDetails?id=191906,191906,43.101345384589,10.538497099432,Tuscany,hemingway,1.0,5219276511d276315d3bff92,10.0,http://tour-pedia.org/api/getReviewsByPlaceId?placeId=191906,Bar,Nightlife,0.0
,attraction,http://tour-pedia.org/api/getPlaceDetails?id=191915,191915,43.09920501709,10.545220375061,Tuscany,cesare paciotti lounge bar,1.0,51dc4acd498e2448c25db8a2,5.0,http://tour-pedia.org/api/getReviewsByPlaceId?placeId=191915,Cocktail Bar,Nightlife,0.0
,attraction,http://tour-pedia.org/api/getPlaceDetails?id=191940,191940,43.089597834224,10.541958182905,Tuscany,Gatto Nero,1.0,4c30fc16a0ced13adafb126e,0.0,http://tour-pedia.org/api/getReviewsByPlaceId?placeId=191940,Bar,Nightlife,0.0
,attraction,http://tour-pedia.org/api/getPlaceDetails?id=191963,191963,43.850824600433,10.55957876676,Tuscany,Casa Isma,1.0,520bb2d511d22c3072609425,5.0,http://tour-pedia.org/api/getReviewsByPlaceId?placeId=191963,Gay Bar,Nightlife,0.0
,attraction,http://tour-pedia.org/api/getPlaceDetails?id=192178,192178,43.77271270752,10.60314655304,Tuscany,Il sogno,1.0,51345814e4b062420238e593,5.0,http://tour-pedia.org/api/getReviewsByPlaceId?placeId=192178,Bar,Nightlife,0.0
,attraction,http://tour-pedia.org/api/getPlaceDetails?id=192205,192205,43.034275,10.597636,Tuscany,Luce,1.0,51cf3244498ebe6bed2e7433,5.0,http://tour-pedia.org/api/getReviewsByPlaceId?placeId=192205,Wine Bar,Nightlife,0.0
,attraction,http://tour-pedia.org/api/getPlaceDetails?id=192287,192287,43.69906694728,10.61913566775,Tuscany,Vipera,1.0,4c93fc3d38dd8cfae9d1c462,5.0,http://tour-pedia.org/api/getReviewsByPlaceId?placeId=192287,Cocktail Bar,Nightlife,0.0
,attraction,http://tour-pedia.org/api/getPlaceDetails?id=192291,192291,43.699879004016,10.620878704284,Tuscany,Black Line,4.0,4ea454c893ad755e37c0cabf,4.0,http://tour-pedia.org/api/getReviewsByPlaceId?placeId=192291,Cocktail Bar,Nightlife,0.0
Via Del Tiglio 149/e,attraction,http://tour-pedia.org/api/getPlaceDetails?id=192292,192292,43.700128,10.619756,Tuscany,Lime'on,5.0,4ef39b3030f87cc51705f72d,4.0,http://tour-pedia.org/api/getReviewsByPlaceId?placeId=192292,Cocktail Bar,Nightlife,0.0
,attraction,http://tour-pedia.org/api/getPlaceDetails?id=192293,192293,43.700112114979,10.620378333972,Tuscany,Il Barrino - Bientina,1.0,4e7e2eacbe7bddefa44824a6,0.0,http://tour-pedia.org/api/getReviewsByPlaceId?placeId=192293,Cocktail Bar,Nightlife,0.0
,attraction,http://tour-pedia.org/api/getPlaceDetails?id=192344,192344,43.233900725918,10.617871024558,Tuscany,Enoteca Tognoni,6.0,4c0804df6071a593d298db32,6.0,http://tour-pedia.org/api/getReviewsByPlaceId?placeId=192344,Wine Bar,Nightlife,0.61
La Piazetta,attraction,http://tour-pedia.org/api/getPlaceDetails?id=192447,192447,43.313176,10.633008,Tuscany,Bar La Piazetta,1.0,51cde199498e55d0087dcef0,0.0,http://tour-pedia.org/api/getReviewsByPlaceId?placeId=192447,Bar,Nightlife,0.61
"Corso Giacomo Matteotti, 139",attraction,http://tour-pedia.org/api/getPlaceDetails?id=192481,192481,43.663755,10.639032,Tuscany,Beat,2.0,4c5ff402cd522d7f18edcc3f,5.0,http://tour-pedia.org/api/getReviewsByPlaceId?placeId=192481,Cocktail Bar,Nightlife,0.61
Via Delle Cascine 2,attraction,http://tour-pedia.org/api/getPlaceDetails?id=192524,192524,43.042450500808,10.638277875468,Tuscany,L'Innesto Bar,1.0,4e4e9f5618383eb2af1560d0,0.0,http://tour-pedia.org/api/getReviewsByPlaceId?placeId=192524,Bar,Nightlife,0.61
,attraction,http://tour-pedia.org/api/getPlaceDetails?id=192540,192540,43.897312415814,10.646544175346,Tuscany,San Gennaro,1.0,4e6f088fd1647b1137c6ec7c,5.0,http://tour-pedia.org/api/getReviewsByPlaceId?placeId=192540,Bar,Nightlife,0.0
via tosco-romagnola,attraction,http://tour-pedia.org/api/getPlaceDetails?id=192587,192587,43.665061316514,10.659470337155,Tuscany,La Cittadella Del Caffe',1.0,4d37448c036c5481718c4b89,0.0,http://tour-pedia.org/api/getReviewsByPlaceId?placeId=192587,Bar,Nightlife,0.0
,attraction,http://tour-pedia.org/api/getPlaceDetails?id=192767,192767,43.810454065816,10.692118265231,Tuscany,Tula',1.0,4d188637302da1cd8356c393,5.0,http://tour-pedia.org/api/getReviewsByPlaceId?placeId=192767,Wine Bar,Nightlife,0.0
,attraction,http://tour-pedia.org/api/getPlaceDetails?id=192789,192789,42.950233702297,10.687958237082,Tuscany,CIVICA Quindici,1.0,501025cfe4b0754488eff015,10.0,http://tour-pedia.org/api/getReviewsByPlaceId?placeId=192789,Cocktail Bar,Nightlife,0.0
,attraction,http://tour-pedia.org/api/getPlaceDetails?id=192819,192819,43.541749139579,10.70016921684,Tuscany,Bar La Rosa,1.0,4e3bec4aae604542364fc18b,0.0,http://tour-pedia.org/api/getReviewsByPlaceId?placeId=192819,Bar,Nightlife,0.0
,attraction,http://tour-pedia.org/api/getPlaceDetails?id=192827,192827,42.946066200059,10.693504982505,Tuscany,Mirollino,2.0,4e46cf2dd164155c0deaa573,5.0,http://tour-pedia.org/api/getReviewsByPlaceId?placeId=192827,Cocktail Bar,Nightlife,0.0
,attraction,http://tour-pedia.org/api/getPlaceDetails?id=192909,192909,43.841522582592,10.722398757935,Tuscany,Bar Milano,1.0,4c9f49420e9bb1f7c6f4ee5f,5.0,http://tour-pedia.org/api/getReviewsByPlaceId?placeId=192909,Bar,Nightlife,0.0
"Via Nazionale,14",attraction,http://tour-pedia.org/api/getPlaceDetails?id=192948,192948,43.676137232914,10.733954454218,Tuscany,Playa Cafe,1.0,4fb4fd38e4b067982c93d6d4,5.0,http://tour-pedia.org/api/getReviewsByPlaceId?placeId=192948,Bar,Nightlife,0.0
,attraction,http://tour-pedia.org/api/getPlaceDetails?id=192980,192980,43.664726,10.739193,Tuscany,Fashion Cafe,1.0,4d5ba9f4ddac721e1f2e65fe,5.0,http://tour-pedia.org/api/getReviewsByPlaceId?placeId=192980,Cocktail Bar,Nightlife,0.0
Lungomare Italia 200,attraction,http://tour-pedia.org/api/getPlaceDetails?id=193029,193029,42.930670894972,10.735385834864,Tuscany,Life café,1.0,4f1c0a11e4b0e2eeebf2d097,5.0,http://tour-pedia.org/api/getReviewsByPlaceId?placeId=193029,Bar,Nightlife,0.0
,attraction,http://tour-pedia.org/api/getPlaceDetails?id=193117,193117,42.92309,10.752356,Tuscany,La Casa Del Rum,1.0,520fdd3411d28607740a40c1,10.0,http://tour-pedia.org/api/getReviewsByPlaceId?placeId=193117,Cocktail Bar,Nightlife,0.0
,attraction,http://tour-pedia.org/api/getPlaceDetails?id=193145,193145,43.885652100533,10.764282373142,Tuscany,Montecatini B@r,1.0,4dfd7207e4cdbe059c3cd643,5.0,http://tour-pedia.org/api/getReviewsByPlaceId?placeId=193145,Bar,Nightlife,0.0
,attraction,http://tour-pedia.org/api/getPlaceDetails?id=193173,193173,42.921687,10.756825,Tuscany,On The Rocks,2.0,4fcb99e9e4b01e24bfcb0ec9,3.0,http://tour-pedia.org/api/getReviewsByPlaceId?placeId=193173,Cocktail Bar,Nightlife,0.7
Via Carducci,attraction,http://tour-pedia.org/api/getPlaceDetails?id=193178,193178,42.920801022699,10.757305203134,Tuscany,Thermopolia,2.0,50deae9fe4b0929c19595c8e,6.0,http://tour-pedia.org/api/getReviewsByPlaceId?placeId=193178,Gay Bar,Nightlife,0.7
Viale 4 Novembre 15,attraction,http://tour-pedia.org/api/getPlaceDetails?id=193208,193208,43.884522,10.769964,Tuscany,Syrah,5.0,4c4a1b7542b4d13a17e9be7c,5.0,http://tour-pedia.org/api/getReviewsByPlaceId?placeId=193208,Cocktail Bar,Nightlife,0.75
,attraction,http://tour-pedia.org/api/getPlaceDetails?id=193210,193210,43.885036393588,10.77042293146,Tuscany,Bar Condicio,2.0,51e8b4d2498e5b54b77e5508,8.0,http://tour-pedia.org/api/getReviewsByPlaceId?placeId=193210,Cocktail Bar,Nightlife,0.75
Viale IV Novembre,attraction,http://tour-pedia.org/api/getPlaceDetails?id=193216,193216,43.88446499017,10.770153068904,Tuscany,Sirah Wine Cafè,6.0,4f764de0e4b03b459c5e2af8,5.0,http://tour-pedia.org/api/getReviewsByPlaceId?placeId=193216,Wine Bar,Nightlife,0.75
,attraction,http://tour-pedia.org/api/getPlaceDetails?id=193218,193218,43.885780516564,10.775765267915,Tuscany,Bar Settentrionale,3.0,4defb197ae609ae4fa4ee8ef,7.0,http://tour-pedia.org/api/getReviewsByPlaceId?placeId=193218,Bar,Nightlife,0.62
,attraction,http://tour-pedia.org/api/getPlaceDetails?id=193268,193268,43.72279736,10.77318951,Tuscany,Twins American Bar,1.0,4d4c7443f523a143f7c1769d,10.0,http://tour-pedia.org/api/getReviewsByPlaceId?placeId=193268,Cocktail Bar,Nightlife,0.62
,attraction,http://tour-pedia.org/api/getPlaceDetails?id=193286,193286,42.934554,10.772057,Tuscany,Gascio'sHouse,1.0,50424f93e4b0f306721f7fa7,10.0,http://tour-pedia.org/api/getReviewsByPlaceId?placeId=193286,Hookah Bar,Nightlife,0.62
,attraction,http://tour-pedia.org/api/getPlaceDetails?id=193296,193296,42.917883212119,10.761347162729,Tuscany,Congo Bar,6.0,4c535d93728920a1e6f3f380,8.0,http://tour-pedia.org/api/getReviewsByPlaceId?placeId=193296,Bar,Nightlife,0.62
,attraction,http://tour-pedia.org/api/getPlaceDetails?id=193300,193300,42.914229,10.769532,Tuscany,Roxy Bar,4.0,4e0fdfa8b0fb59de67e4dbb4,3.0,http://tour-pedia.org/api/getReviewsByPlaceId?placeId=193300,Bar,Nightlife,0.62
,attraction,http://tour-pedia.org/api/getPlaceDetails?id=193318,193318,43.895577797087,10.777814161943,Tuscany,Bar Bull,1.0,4d4c7b95e1ec6dcbc2ced975,0.0,http://tour-pedia.org/api/getReviewsByPlaceId?placeId=193318,Bar,Nightlife,0.62
,attraction,http://tour-pedia.org/api/getPlaceDetails?id=193328,193328,43.883159742788,10.775225512932,Tuscany,Hotel La Plaia,1.0,4e483a8e1f6e29f10dbe2fc3,10.0,http://tour-pedia.org/api/getReviewsByPlaceId?placeId=193328,Hotel Bar,Nightlife,0.82
Via Fiume,attraction,http://tour-pedia.org/api/getPlaceDetails?id=193410,193410,42.920587,10.759695,Tuscany,Egon,1.0,518c1b6b498e8beac760e375,5.0,http://tour-pedia.org/api/getReviewsByPlaceId?placeId=193410,Cocktail Bar,Nightlife,0.82
,attraction,http://tour-pedia.org/api/getPlaceDetails?id=193428,193428,43.882934570312,10.779934883118,Tuscany,"Cafe ""Violent sex""",1.0,514f6c95e4b0fc6168a4fdef,0.0,http://tour-pedia.org/api/getReviewsByPlaceId?placeId=193428,Gay Bar,Nightlife,0.82
,attraction,http://tour-pedia.org/api/getPlaceDetails?id=193505,193505,43.686623034554,10.795787957212,Tuscany,Bar Arcobaleno,2.0,4f7eab11e4b00dcb69be656a,8.0,http://tour-pedia.org/api/getReviewsByPlaceId?placeId=193505,Bar,Nightlife,0.82
,attraction,http://tour-pedia.org/api/getPlaceDetails?id=193552,193552,43.733161,10.802204,Tuscany,Bar airone,1.0,4d57e768de8f6dcb10eb0491,5.0,http://tour-pedia.org/api/getReviewsByPlaceId?placeId=193552,Bar,Nightlife,0.82
,attraction,http://tour-pedia.org/api/getPlaceDetails?id=193582,193582,43.871098916831,10.813963536459,Tuscany,Colazione Da Tiffany,4.0,4d601ffd5b276dcb8b8711c6,4.0,http://tour-pedia.org/api/getReviewsByPlaceId?placeId=193582,Cocktail Bar,Nightlife,0.82
Piazza Xx Settembre,attraction,http://tour-pedia.org/api/getPlaceDetails?id=193615,193615,43.72715,10.807132,Tuscany,Bar Giuliano,1.0,501d6661e4b035a2203a1c3c,5.0,http://tour-pedia.org/api/getReviewsByPlaceId?placeId=193615,Bar,Nightlife,0.82
,attraction,http://tour-pedia.org/api/getPlaceDetails?id=193622,193622,43.727407631492,10.809423445894,Tuscany,Caffè Enrico,1.0,4e609c7bd22d509a38ced283,5.0,http://tour-pedia.org/api/getReviewsByPlaceId?placeId=193622,Bar,Nightlife,0.82
,attraction,http://tour-pedia.org/api/getPlaceDetails?id=193632,193632,43.723384651402,10.812371174028,Tuscany,isibar,2.0,4d512b1f3626a093516721bd,8.0,http://tour-pedia.org/api/getReviewsByPlaceId?placeId=193632,Bar,Nightlife,0.82
,attraction,http://tour-pedia.org/api/getPlaceDetails?id=193678,193678,43.679957049856,10.815985710123,Tuscany,l'estrò,1.0,4f973419e4b0b6acb2aef803,0.0,http://tour-pedia.org/api/getReviewsByPlaceId?placeId=193678,Cocktail Bar,Nightlife,0.82
,attraction,http://tour-pedia.org/api/getPlaceDetails?id=193721,193721,43.691699,10.831785,Tuscany,L'Estrò Caffe,3.0,4f973e7ce4b058034ccbfce5,7.0,http://tour-pedia.org/api/getReviewsByPlaceId?placeId=193721,Cocktail Bar,Nightlife,0.82
,attraction,http://tour-pedia.org/api/getPlaceDetails?id=193743,193743,43.822409,10.840973,Tuscany,Caffè Mirò,1.0,4db0b4d5cda14b702a370efb,0.0,http://tour-pedia.org/api/getReviewsByPlaceId?placeId=193743,Bar,Nightlife,0.82
,attraction,http://tour-pedia.org/api/getPlaceDetails?id=193750,193750,43.693404,10.840737,Tuscany,L'oca Bianca San Miniato,2.0,4c8c0dad55fba093f1145cab,8.0,http://tour-pedia.org/api/getReviewsByPlaceId?placeId=193750,Bar,Nightlife,0.51
"Via IV Novembre, 2",attraction,http://tour-pedia.org/api/getPlaceDetails?id=193754,193754,43.679426612742,10.840580344718,Tuscany,Rosso Antico,3.0,4ea85bd09adfcc4eb0efda04,5.0,http://tour-pedia.org/api/getReviewsByPlaceId?placeId=193754,Wine Bar,Nightlife,0.51
,attraction,http://tour-pedia.org/api/getPlaceDetails?id=193789,193789,43.911102,10.854811,Tuscany,Bar Alessandro,1.0,4d809baf8edaa143f9a8f139,0.0,http://tour-pedia.org/api/getReviewsByPlaceId?placeId=193789,Bar,Nightlife,0.51
,attraction,http://tour-pedia.org/api/getPlaceDetails?id=193805,193805,43.679049,10.848226,Tuscany,Caffè Centrale,3.0,4e5d4ff0aeb73819c6302d8f,10.0,http://tour-pedia.org/api/getReviewsByPlaceId?placeId=193805,Bar,Nightlife,0.51
,attraction,http://tour-pedia.org/api/getPlaceDetails?id=193808,193808,43.68246985,10.852037,Tuscany,Chalet,1.0,4e3090eb62e11193f6e0129e,10.0,http://tour-pedia.org/api/getReviewsByPlaceId?placeId=193808,Bar,Nightlife,0.51
,attraction,http://tour-pedia.org/api/getPlaceDetails?id=193881,193881,43.401359,10.859728,Tuscany,Enjoy! Cafè,1.0,4c8ce67ac37a6dcb1419fb7a,10.0,http://tour-pedia.org/api/getReviewsByPlaceId?placeId=193881,Bar,Nightlife,-0.21
,attraction,http://tour-pedia.org/api/getPlaceDetails?id=193886,193886,43.401694881427,10.860131654506,Tuscany,Chic & Shock,2.0,4c75258ab474a1cd745db8bf,3.0,http://tour-pedia.org/api/getReviewsByPlaceId?placeId=193886,Bar,Nightlife,-0.21
Via Matteotti 2,attraction,http://tour-pedia.org/api/getPlaceDetails?id=193889,193889,43.401564681999,10.859789871615,Tuscany,...E se fosse bar?,1.0,502fd8c4e4b0b02594a57633,5.0,http://tour-pedia.org/api/getReviewsByPlaceId?placeId=193889,Bar,Nightlife,-0.21
,attraction,http://tour-pedia.org/api/getPlaceDetails?id=193910,193910,42.768693754509,10.851664621401,Tuscany,Beach Bar Riva Del Sole,1.0,50747586e4b03e9d08432735,0.0,http://tour-pedia.org/api/getReviewsByPlaceId?placeId=193910,Bar,Nightlife,-0.21
,attraction,http://tour-pedia.org/api/getPlaceDetails?id=193973,193973,44.0381751213,10.868665600237,Tuscany,Il Cielo,1.0,4e6bca2888772457c50a14a2,5.0,http://tour-pedia.org/api/getReviewsByPlaceId?placeId=193973,Bar,Nightlife,-0.21
,attraction,http://tour-pedia.org/api/getPlaceDetails?id=193978,193978,43.824628,10.876589,Tuscany,Il Soldatino,4.0,4e025faa183869ee2c6dd98f,6.0,http://tour-pedia.org/api/getReviewsByPlaceId?placeId=193978,Bar,Nightlife,-0.21
via ferrucci 33,attraction,http://tour-pedia.org/api/getPlaceDetails?id=193984,193984,43.818628408077,10.87434053421,Tuscany,Spritz,1.0,4eaddb61a17c199864eb8dc7,10.0,http://tour-pedia.org/api/getReviewsByPlaceId?placeId=193984,Cocktail Bar,Nightlife,-0.21
Via Della Fonte 8,attraction,http://tour-pedia.org/api/getPlaceDetails?id=194070,194070,42.763610813183,10.881892524863,Tuscany,il ritrovino,1.0,518a804e498e89e167d74d9a,10.0,http://tour-pedia.org/api/getReviewsByPlaceId?placeId=194070,Wine Bar,Nightlife,-0.21
"Via dell'Amore, 1",attraction,http://tour-pedia.org/api/getPlaceDetails?id=194071,194071,42.763806,10.880614,Tuscany,Posto Pubblico,5.0,4c2f7619ac0ab71368ca1b1e,6.0,http://tour-pedia.org/api/getReviewsByPlaceId?placeId=194071,Wine Bar,Nightlife,0.14
,attraction,http://tour-pedia.org/api/getPlaceDetails?id=194077,194077,42.763009723784,10.881026846624,Tuscany,bistrò 22,3.0,5026d5c6e4b05db3aeb587c3,5.0,http://tour-pedia.org/api/getReviewsByPlaceId?placeId=194077,Cocktail Bar,Nightlife,0.14
"Via Roma, 18/20",attraction,http://tour-pedia.org/api/getPlaceDetails?id=194079,194079,42.762709237643,10.878027360012,Tuscany,Nautilus American Bar,2.0,4db82e91ced722c9a38f16ba,10.0,http://tour-pedia.org/api/getReviewsByPlaceId?placeId=194079,Cocktail Bar,Nightlife,0.73
Viale Italia,attraction,http://tour-pedia.org/api/getPlaceDetails?id=194229,194229,43.942489298358,10.908158847672,Tuscany,Bar Damasco,1.0,503816b9e4b05a2967d1e354,0.0,http://tour-pedia.org/api/getReviewsByPlaceId?placeId=194229,Bar,Nightlife,0.73
,attraction,http://tour-pedia.org/api/getPlaceDetails?id=194329,194329,43.935831522272,10.915898680687,Tuscany,Carbonile,1.0,4cc36be342d1b60cfd4c1713,5.0,http://tour-pedia.org/api/getReviewsByPlaceId?placeId=194329,Cocktail Bar,Nightlife,0.73
,attraction,http://tour-pedia.org/api/getPlaceDetails?id=194338,194338,43.932773870931,10.916673839092,Tuscany,Vecchia Praga,3.0,4c78160e3badb1f765964a54,10.0,http://tour-pedia.org/api/getReviewsByPlaceId?placeId=194338,Bar,Nightlife,0.76
,attraction,http://tour-pedia.org/api/getPlaceDetails?id=194367,194367,43.83536096672,10.918528398612,Tuscany,Bar Enoteca L'Indicatore,7.0,4c5800f8d12a20a1cee367bd,8.0,http://tour-pedia.org/api/getReviewsByPlaceId?placeId=194367,Bar,Nightlife,0.51
"Piazza Cavour, 22",attraction,http://tour-pedia.org/api/getPlaceDetails?id=194374,194374,43.5528239,10.9139233,Tuscany,Bar Aione,2.0,4c7d05ee09b29c74173fe63c,5.0,http://tour-pedia.org/api/getReviewsByPlaceId?placeId=194374,Bar,Nightlife,0.56
,attraction,http://tour-pedia.org/api/getPlaceDetails?id=194389,194389,43.939847878719,10.91899174525,Tuscany,Tirebouchon,1.0,4d83b12e5e70224b3b3cfd08,5.0,http://tour-pedia.org/api/getReviewsByPlaceId?placeId=194389,Bar,Nightlife,0.56
,attraction,http://tour-pedia.org/api/getPlaceDetails?id=194418,194418,43.787621,10.926952,Tuscany,Caffè Del Castello,1.0,4d8533dd7e8ef04dd14e1cbe,5.0,http://tour-pedia.org/api/getReviewsByPlaceId?placeId=194418,Cocktail Bar,Nightlife,0.0
Via Dei Martiri 86,attraction,http://tour-pedia.org/api/getPlaceDetails?id=194421,194421,43.781248476914,10.922924766109,Tuscany,Alexandra,2.0,507853a3e4b0b615598086ab,5.0,http://tour-pedia.org/api/getReviewsByPlaceId?placeId=194421,Hotel Bar,Nightlife,0.0
,attraction,http://tour-pedia.org/api/getPlaceDetails?id=194464,194464,43.729284286583,10.931462784061,Tuscany,Scarlett Cafè,3.0,4ca349b3750ca093906d1767,5.0,http://tour-pedia.org/api/getReviewsByPlaceId?placeId=194464,Bar,Nightlife,0.0
Via Palmiro Togliatti 50059 Vinci Florence (Toscan,attraction,http://tour-pedia.org/api/getPlaceDetails?id=194508,194508,43.72664144331,10.939618461319,Tuscany,Da Vinci Hotel Florence,1.0,4bd5bc549649ce72ab96511d,5.0,http://tour-pedia.org/api/getReviewsByPlaceId?placeId=194508,Hotel Bar,Nightlife,0.0
,attraction,http://tour-pedia.org/api/getPlaceDetails?id=194516,194516,43.718133,10.935563,Tuscany,Strano Bar,1.0,4c9a1a709c663704909b55fd,0.0,http://tour-pedia.org/api/getReviewsByPlaceId?placeId=194516,Bar,Nightlife,0.0
,attraction,http://tour-pedia.org/api/getPlaceDetails?id=194579,194579,43.722549,10.947949,Tuscany,Why Not?,1.0,5197dfaa498e69ddb20fd18c,5.0,http://tour-pedia.org/api/getReviewsByPlaceId?placeId=194579,Cocktail Bar,Nightlife,0.0
,attraction,http://tour-pedia.org/api/getPlaceDetails?id=194600,194600,43.716904,10.949243966667,Tuscany,Viti,5.0,4c299bb3e19720a183caf958,2.0,http://tour-pedia.org/api/getReviewsByPlaceId?placeId=194600,Bar,Nightlife,0.0
,attraction,http://tour-pedia.org/api/getPlaceDetails?id=194604,194604,43.71577,10.949391,Tuscany,Mokà Cafè,3.0,4cc908f7bfe1f04d84c10b75,5.0,http://tour-pedia.org/api/getReviewsByPlaceId?placeId=194604,Bar,Nightlife,0.0
,attraction,http://tour-pedia.org/api/getPlaceDetails?id=194607,194607,43.718015,10.945767,Tuscany,Bini's Bar,1.0,4caf314675ebb60c9221baad,5.0,http://tour-pedia.org/api/getReviewsByPlaceId?placeId=194607,Bar,Nightlife,0.0
Piazza farinata degli uberti,attraction,http://tour-pedia.org/api/getPlaceDetails?id=194610,194610,43.719759790678,10.945362074548,Tuscany,Mirada,2.0,4ddd640952b155583deaab4f,5.0,http://tour-pedia.org/api/getReviewsByPlaceId?placeId=194610,Bar,Nightlife,0.0
Via Salaiola 305,attraction,http://tour-pedia.org/api/getPlaceDetails?id=194619,194619,43.67813007843,10.943243352922,Tuscany,Circolo ARCI Monterappoli,1.0,4e52e624b0fb6cfefebb678f,5.0,http://tour-pedia.org/api/getReviewsByPlaceId?placeId=194619,Bar,Nightlife,0.0
,attraction,http://tour-pedia.org/api/getPlaceDetails?id=194628,194628,42.742871,10.941064,Tuscany,Bar Axel,1.0,4de76ad4887710a065b5ebe3,5.0,http://tour-pedia.org/api/getReviewsByPlaceId?placeId=194628,Bar,Nightlife,0.0
"Piazza Guido Guerra, 52",attraction,http://tour-pedia.org/api/getPlaceDetails?id=194652,194652,43.72273798,10.94837267,Tuscany,Oltre Lounge Bar,1.0,4e03d4727d8b00eb78bf904e,10.0,http://tour-pedia.org/api/getReviewsByPlaceId?placeId=194652,Cocktail Bar,Nightlife,0.0
"Piazza Risorgimento, 51/52",attraction,http://tour-pedia.org/api/getPlaceDetails?id=194797,194797,43.847804099208,10.977435525251,Tuscany,Bar Grazia,5.0,4d70181c1fe62d43808f2022,4.0,http://tour-pedia.org/api/getReviewsByPlaceId?placeId=194797,Bar,Nightlife,0.0
,attraction,http://tour-pedia.org/api/getPlaceDetails?id=194798,194798,43.847165535129,10.977672860147,Tuscany,Bar Moderno,1.0,508cfc8ae4b017e578954c6c,5.0,http://tour-pedia.org/api/getReviewsByPlaceId?placeId=194798,Bar,Nightlife,0.0
Via Viaccia 148,attraction,http://tour-pedia.org/api/getPlaceDetails?id=194871,194871,43.718559,10.987873,Tuscany,Circolino Ponterotto,2.0,4d9643f6942ba09339264f8c,5.0,http://tour-pedia.org/api/getReviewsByPlaceId?placeId=194871,Bar,Nightlife,0.0
,attraction,http://tour-pedia.org/api/getPlaceDetails?id=194876,194876,43.672626946338,10.991941626848,Tuscany,Il Caffè di Alice,1.0,4cf5135e6195721ecf8455c1,10.0,http://tour-pedia.org/api/getReviewsByPlaceId?placeId=194876,Bar,Nightlife,0.0
,attraction,http://tour-pedia.org/api/getPlaceDetails?id=194896,194896,42.717823954701,10.980896257212,Tuscany,Insolito Cafè,1.0,4e4edd08d22daf51d26df1ec,10.0,http://tour-pedia.org/api/getReviewsByPlaceId?placeId=194896,Bar,Nightlife,0.0
,attraction,http://tour-pedia.org/api/getPlaceDetails?id=194903,194903,42.716056811826,10.982778461965,Tuscany,Bar Elefy,1.0,51f52a44498edc664e801d48,5.0,http://tour-pedia.org/api/getReviewsByPlaceId?placeId=194903,Bar,Nightlife,0.0
"via della torraccia, 2",attraction,http://tour-pedia.org/api/getPlaceDetails?id=194945,194945,43.668529196616,10.997638684661,Tuscany,circolo arci martignana,1.0,4c5d8e4aed29ef3b8a069176,0.0,http://tour-pedia.org/api/getReviewsByPlaceId?placeId=194945,Bar,Nightlife,0.0
Viale Roma 91,attraction,http://tour-pedia.org/api/getPlaceDetails?id=194979,194979,43.905262832527,11.001679825248,Tuscany,Manhattan,1.0,5274131e498ed3c3a91b69e0,0.0,http://tour-pedia.org/api/getReviewsByPlaceId?placeId=194979,Cocktail Bar,Nightlife,0.0
,attraction,http://tour-pedia.org/api/getPlaceDetails?id=195005,195005,43.726139867627,11.001988990522,Tuscany,Black And White,1.0,4d55bc65cc65a143eb38525e,5.0,http://tour-pedia.org/api/getReviewsByPlaceId?placeId=195005,Cocktail Bar,Nightlife,0.0
Piazza V. Emanuele 20,attraction,http://tour-pedia.org/api/getPlaceDetails?id=195097,195097,43.814183486552,11.019717964182,Tuscany,Circolo ARCI 11 Giugno,1.0,4fa9734be4b07584ababe6ca,5.0,http://tour-pedia.org/api/getReviewsByPlaceId?placeId=195097,Bar,Nightlife,0.0
Corso Garibaldi 38,attraction,http://tour-pedia.org/api/getPlaceDetails?id=195136,195136,43.733190728417,11.020695333366,Tuscany,Gelateria Capofrio,1.0,522258b311d24ee10f005702,5.0,http://tour-pedia.org/api/getReviewsByPlaceId?placeId=195136,Bar,Nightlife,0.0
,attraction,http://tour-pedia.org/api/getPlaceDetails?id=195141,195141,43.732565117332,11.021661668554,Tuscany,La Volpe e l'Uva,2.0,4f590aa5e4b0db97b79617fd,5.0,http://tour-pedia.org/api/getReviewsByPlaceId?placeId=195141,Cocktail Bar,Nightlife,-0.87
,attraction,http://tour-pedia.org/api/getPlaceDetails?id=195174,195174,43.885232,11.036582,Tuscany,Rincao gaucho,1.0,4ccc80eb566aa093ee2a22fd,0.0,http://tour-pedia.org/api/getReviewsByPlaceId?placeId=195174,Bar,Nightlife,-0.87
,attraction,http://tour-pedia.org/api/getPlaceDetails?id=195248,195248,43.816416,11.045485,Tuscany,Karaoke,1.0,4ddbc1a5d22d22fb7c8470ba,0.0,http://tour-pedia.org/api/getReviewsByPlaceId?placeId=195248,Karaoke Bar,Nightlife,-0.87
"Piazza Masini, 1",attraction,http://tour-pedia.org/api/getPlaceDetails?id=195261,195261,43.547245589668,11.038411259651,Tuscany,Jam Café,2.0,4e3d82e48877b00cfc481b04,5.0,http://tour-pedia.org/api/getReviewsByPlaceId?placeId=195261,Bar,Nightlife,-0.87
Via Don Minzoni,attraction,http://tour-pedia.org/api/getPlaceDetails?id=195291,195291,43.540087052646,11.039537787437,Tuscany,Bar Circolo Arci Tennis Certaldo,2.0,4c6dbd0dd5c3a1cd6270c62b,5.0,http://tour-pedia.org/api/getReviewsByPlaceId?placeId=195291,Bar,Nightlife,-0.87
Piazzetta Calimaco 5,attraction,http://tour-pedia.org/api/getPlaceDetails?id=195299,195299,43.469622731209,11.041426,Tuscany,Bar Piazzetta,4.0,4c2a0e6a9fb5d13ae60d9c57,9.0,http://tour-pedia.org/api/getReviewsByPlaceId?placeId=195299,Bar,Nightlife,0.53
"Via della Rocca, 1",attraction,http://tour-pedia.org/api/getPlaceDetails?id=195301,195301,43.467641650676,11.041708400127,Tuscany,Museo Del Vino Vernaccia,3.0,4c0cf126d64c0f47d4e3255d,8.0,http://tour-pedia.org/api/getReviewsByPlaceId?placeId=195301,Wine Bar,Nightlife,0.81
"Via San Giovanni, 30‎",attraction,http://tour-pedia.org/api/getPlaceDetails?id=195303,195303,43.46669936534,11.042884824989,Tuscany,Bar Boboli,4.0,4ceab274e1eeb60c2da4afae,8.0,http://tour-pedia.org/api/getReviewsByPlaceId?placeId=195303,Bar,Nightlife,0.25
,attraction,http://tour-pedia.org/api/getPlaceDetails?id=195305,195305,43.468573,11.042651,Tuscany,Gustavo Mescita vini,1.0,504e09f3e4b084386bf9c4af,5.0,http://tour-pedia.org/api/getReviewsByPlaceId?placeId=195305,Wine Bar,Nightlife,0.25
Piazza della Cisterna,attraction,http://tour-pedia.org/api/getPlaceDetails?id=195325,195325,43.467485137789,11.043641500178,Tuscany,La Cisterna,4.0,4c33766466e40f47cb0bc88b,5.0,http://tour-pedia.org/api/getReviewsByPlaceId?placeId=195325,Bar,Nightlife,0.25
,attraction,http://tour-pedia.org/api/getPlaceDetails?id=195327,195327,43.467144,11.04364,Tuscany,DiVinorum Wine Bar,1.0,4c0cdd3b2466a593bb9c7621,10.0,http://tour-pedia.org/api/getReviewsByPlaceId?placeId=195327,Wine Bar,Nightlife,0.88
,attraction,http://tour-pedia.org/api/getPlaceDetails?id=195383,195383,43.816126,11.046363,Tuscany,Bar Mario,1.0,4d5d23d1e7f75481807d2197,10.0,http://tour-pedia.org/api/getReviewsByPlaceId?placeId=195383,Bar,Nightlife,0.88
,attraction,http://tour-pedia.org/api/getPlaceDetails?id=195464,195464,43.815893875558,11.056406452124,Tuscany,Fiaschetteria I'Mulino,1.0,4e9dd7d46c251c381e25a724,5.0,http://tour-pedia.org/api/getReviewsByPlaceId?placeId=195464,Dive Bar,Nightlife,0.88
,attraction,http://tour-pedia.org/api/getPlaceDetails?id=195474,195474,43.804223635186,11.058969587603,Tuscany,Fattoria Ambra,1.0,4d5d63ae1ef2f04dcf27ffcd,5.0,http://tour-pedia.org/api/getReviewsByPlaceId?placeId=195474,Wine Bar,Nightlife,0.88
"Piazza del Popolo, 29-49",attraction,http://tour-pedia.org/api/getPlaceDetails?id=195587,195587,43.643564818153,11.074360872457,Tuscany,Pasticceria Fiorentina,2.0,4cbac0d9a33bb1f7b65f90fd,5.0,http://tour-pedia.org/api/getReviewsByPlaceId?placeId=195587,Bar,Nightlife,0.88
Via Montalese,attraction,http://tour-pedia.org/api/getPlaceDetails?id=195625,195625,43.885914877887,11.085361666396,Tuscany,Bar pasticceria Azzurra,1.0,4fafdb79e4b05b8b56637b41,10.0,http://tour-pedia.org/api/getReviewsByPlaceId?placeId=195625,Bar,Nightlife,0.88
V. Di Cantagallo,attraction,http://tour-pedia.org/api/getPlaceDetails?id=195698,195698,43.92320998291,11.092578332752,Tuscany,Circolo 29 Martiri,1.0,4fe8b8fde4b02db7aefd68bd,5.0,http://tour-pedia.org/api/getReviewsByPlaceId?placeId=195698,Bar,Nightlife,0.88
,attraction,http://tour-pedia.org/api/getPlaceDetails?id=195704,195704,43.908292388664,11.092987256363,Tuscany,Jaiss,1.0,50d6447fe4b0ca0b8f5ed865,0.0,http://tour-pedia.org/api/getReviewsByPlaceId?placeId=195704,Hookah Bar,Nightlife,0.88
Via Strozzi,attraction,http://tour-pedia.org/api/getPlaceDetails?id=195705,195705,43.889208038535,11.088102389348,Tuscany,Caffè Concorde,1.0,4fb56db9e4b0ba724f7300d5,0.0,http://tour-pedia.org/api/getReviewsByPlaceId?placeId=195705,Bar,Nightlife,0.88
Piazza Mercatale 110,attraction,http://tour-pedia.org/api/getPlaceDetails?id=195836,195836,43.880531,11.102205,Tuscany,Razmataz,1.0,4c51f561250dd13a4919127e,5.0,http://tour-pedia.org/api/getReviewsByPlaceId?placeId=195836,Wine Bar,Nightlife,0.75
Via Zarini 198,attraction,http://tour-pedia.org/api/getPlaceDetails?id=195843,195843,43.870517,11.098186,Tuscany,Rave Bar,4.0,4c3f9a2dda3dc9281326c6b9,5.0,http://tour-pedia.org/api/getReviewsByPlaceId?placeId=195843,Bar,Nightlife,0.75
"Via Empolese, 28-30",attraction,http://tour-pedia.org/api/getPlaceDetails?id=195893,195893,43.695838719363,11.102135181427,Tuscany,"Bar Pasticceria ""Le Torri""",1.0,4ccfc54706b5468858e0d694,5.0,http://tour-pedia.org/api/getReviewsByPlaceId?placeId=195893,Bar,Nightlife,0.75
,attraction,http://tour-pedia.org/api/getPlaceDetails?id=195913,195913,42.78328958554,11.097756316656,Tuscany,Angels Cafè,1.0,4ea3139e9adff63439f11733,5.0,http://tour-pedia.org/api/getReviewsByPlaceId?placeId=195913,Piano Bar,Nightlife,0.75
,attraction,http://tour-pedia.org/api/getPlaceDetails?id=195929,195929,42.753372,11.102229,Tuscany,Nord Est,2.0,4c8b860d770fb60c4c80dcc3,5.0,http://tour-pedia.org/api/getReviewsByPlaceId?placeId=195929,Cocktail Bar,Nightlife,0.66
,attraction,http://tour-pedia.org/api/getPlaceDetails?id=195961,195961,43.883193776006,11.108649217657,Tuscany,Bar Miraglia,8.0,4c877199f554236afa90cc55,5.0,http://tour-pedia.org/api/getReviewsByPlaceId?placeId=195961,Bar,Nightlife,0.66
"Viale Telamonio, 39",attraction,http://tour-pedia.org/api/getPlaceDetails?id=196030,196030,42.761604999749,11.105029168742,Tuscany,Bar Allegro,8.0,4c8cf33cc37a6dcb828ffb7a,5.0,http://tour-pedia.org/api/getReviewsByPlaceId?placeId=196030,Bar,Nightlife,0.66
,attraction,http://tour-pedia.org/api/getPlaceDetails?id=196031,196031,42.764666425006,11.104415708126,Tuscany,Fencing Bar,1.0,50b7948c498ea7a45b98956d,5.0,http://tour-pedia.org/api/getReviewsByPlaceId?placeId=196031,Karaoke Bar,Nightlife,0.66
Via Mameli 30,attraction,http://tour-pedia.org/api/getPlaceDetails?id=196032,196032,42.766572604054,11.108068895424,Tuscany,Bar Vecchia Guardia,1.0,503b1ef2e4b0f3363d87a834,10.0,http://tour-pedia.org/api/getReviewsByPlaceId?placeId=196032,Sports Bar,Nightlife,0.66
Via Sidney Sonnino 8/c,attraction,http://tour-pedia.org/api/getPlaceDetails?id=196043,196043,42.764479225237,11.108687905929,Tuscany,DIP Chillout Café,2.0,4f1d5a6de4b03543a336c332,5.0,http://tour-pedia.org/api/getReviewsByPlaceId?placeId=196043,Cocktail Bar,Nightlife,0.66
,attraction,http://tour-pedia.org/api/getPlaceDetails?id=196056,196056,42.742972498254,11.107665435337,Tuscany,Sweet Kiss,1.0,4d6b9f8c8fe6a143a2ccf6a3,5.0,http://tour-pedia.org/api/getReviewsByPlaceId?placeId=196056,Bar,Nightlife,0.66
Piazza Mercatale 120,attraction,http://tour-pedia.org/api/getPlaceDetails?id=196093,196093,43.879729508741,11.103144585808,Tuscany,Notte Tempo,2.0,4bae097df964a5206a7d3be3,10.0,http://tour-pedia.org/api/getReviewsByPlaceId?placeId=196093,Cocktail Bar,Nightlife,0.66
Viale della Repubblica 8,attraction,http://tour-pedia.org/api/getPlaceDetails?id=196096,196096,43.871485745096,11.114767682194,Tuscany,Wall Art Hotel Prato,1.0,4bd05749fb2cce729de53bd2,0.0,http://tour-pedia.org/api/getReviewsByPlaceId?placeId=196096,Hotel Bar,Nightlife,-0.3
Viale della repubblica 90,attraction,http://tour-pedia.org/api/getPlaceDetails?id=196099,196099,43.868874026125,11.113534035581,Tuscany,Daiquiri,1.0,4e36991ea8092599ee1038b8,5.0,http://tour-pedia.org/api/getReviewsByPlaceId?placeId=196099,Bar,Nightlife,-0.3
,attraction,http://tour-pedia.org/api/getPlaceDetails?id=196146,196146,43.30718,11.113343,Tuscany,Capannino della Suvera,1.0,516a6dffe4b0390224bfd769,10.0,http://tour-pedia.org/api/getReviewsByPlaceId?placeId=196146,Cocktail Bar,Nightlife,0.93
Piazza Fratelli Rosselli,attraction,http://tour-pedia.org/api/getPlaceDetails?id=196160,196160,42.763513009674,11.112247292589,Tuscany,Bar La Vasca,1.0,4c8cb1985e048cfa7c15cfcd,5.0,http://tour-pedia.org/api/getReviewsByPlaceId?placeId=196160,Bar,Nightlife,0.93
Via Daniele Manin 28,attraction,http://tour-pedia.org/api/getPlaceDetails?id=196166,196166,42.759727179618,11.112661825878,Tuscany,Bar Perugina,3.0,4c88be5c0f3c236a83f8f45c,3.0,http://tour-pedia.org/api/getReviewsByPlaceId?placeId=196166,Bar,Nightlife,0.0
,attraction,http://tour-pedia.org/api/getPlaceDetails?id=196169,196169,42.761667074236,11.11338035442,Tuscany,Gallery Cafè,1.0,4e56b369b61cd9cd9e3c0b5c,2.0,http://tour-pedia.org/api/getReviewsByPlaceId?placeId=196169,Bar,Nightlife,0.0
Piazza Randolfo Pacciardi,attraction,http://tour-pedia.org/api/getPlaceDetails?id=196182,196182,42.760436643533,11.115906300605,Tuscany,EX,1.0,4dea7b21d4c00071b8246e51,5.0,http://tour-pedia.org/api/getReviewsByPlaceId?placeId=196182,Wine Bar,Nightlife,0.0
Piazzetta san michele,attraction,http://tour-pedia.org/api/getPlaceDetails?id=196183,196183,42.760400592491,11.11261760891,Tuscany,2 banki,1.0,4fedff91e4b0369bc7955e44,5.0,http://tour-pedia.org/api/getReviewsByPlaceId?placeId=196183,Cocktail Bar,Nightlife,0.0
,attraction,http://tour-pedia.org/api/getPlaceDetails?id=196184,196184,42.757838,11.11402,Tuscany,Bar Dribbling,2.0,4d839076f9f3a1cd983ca364,8.0,http://tour-pedia.org/api/getReviewsByPlaceId?placeId=196184,Cocktail Bar,Nightlife,0.0
Piazza Del Sale,attraction,http://tour-pedia.org/api/getPlaceDetails?id=196194,196194,42.758727,11.114179,Tuscany,Cantina Di Piazza Del Sale,1.0,5176d694e4b0bb121a870feb,10.0,http://tour-pedia.org/api/getReviewsByPlaceId?placeId=196194,Wine Bar,Nightlife,0.67
"Via De Barberi, 16",attraction,http://tour-pedia.org/api/getPlaceDetails?id=196198,196198,42.757287263782,11.115491753529,Tuscany,Bar Les Amis,1.0,5051a806e4b0449e19f5a989,1.0,http://tour-pedia.org/api/getReviewsByPlaceId?placeId=196198,Bar,Nightlife,0.67
Via Del Molo 3,attraction,http://tour-pedia.org/api/getPlaceDetails?id=196206,196206,42.439789,11.11554958,Tuscany,Sparkling American Bar,4.0,4c589d01d3aee21ebc456655,5.0,http://tour-pedia.org/api/getReviewsByPlaceId?placeId=196206,Bar,Nightlife,0.0
,attraction,http://tour-pedia.org/api/getPlaceDetails?id=196224,196224,43.95888,11.125772,Tuscany,La Vallata,1.0,51fad3af498e8f2299c896be,5.0,http://tour-pedia.org/api/getReviewsByPlaceId?placeId=196224,Bar,Nightlife,0.0
Bastione di Sapia,attraction,http://tour-pedia.org/api/getPlaceDetails?id=196292,196292,43.422017010284,11.118979531183,Tuscany,L'angolo di Sapia,1.0,4dea98d8d22da22d4ed8b412,0.0,http://tour-pedia.org/api/getReviewsByPlaceId?placeId=196292,Wine Bar,Nightlife,0.0
,attraction,http://tour-pedia.org/api/getPlaceDetails?id=196303,196303,43.408091,11.124492,Tuscany,Vega Bar,1.0,51acbfd7498e83fcf70732d4,0.0,http://tour-pedia.org/api/getReviewsByPlaceId?placeId=196303,Cocktail Bar,Nightlife,0.0
,attraction,http://tour-pedia.org/api/getPlaceDetails?id=196321,196321,42.765940085015,11.117647417556,Tuscany,Cristall,1.0,4efcbd300e6152f7781287b7,5.0,http://tour-pedia.org/api/getReviewsByPlaceId?placeId=196321,Cocktail Bar,Nightlife,0.0
,attraction,http://tour-pedia.org/api/getPlaceDetails?id=196351,196351,42.439335,11.117355,Tuscany,La Dolce Vita,1.0,4c6d862a4d24b60c471dd6d8,5.0,http://tour-pedia.org/api/getReviewsByPlaceId?placeId=196351,Cocktail Bar,Nightlife,0.0
"via Panoramica,241",attraction,http://tour-pedia.org/api/getPlaceDetails?id=196361,196361,42.436913774853,11.1216825064,Tuscany,Hotel la Lucciola,2.0,4db0a504cda14b702a35ada3,0.0,http://tour-pedia.org/api/getReviewsByPlaceId?placeId=196361,Hotel Bar,Nightlife,0.0
,attraction,http://tour-pedia.org/api/getPlaceDetails?id=196389,196389,43.826038,11.126294,Tuscany,Bar La Curva,2.0,4fe1793be4b0edfa939c5f7b,8.0,http://tour-pedia.org/api/getReviewsByPlaceId?placeId=196389,Bar,Nightlife,0.0
via San Lorenzo,attraction,http://tour-pedia.org/api/getPlaceDetails?id=196400,196400,43.823814808511,11.12889289856,Tuscany,circolo San Lorenzo,1.0,4d8e569bc1b1721e70422e46,0.0,http://tour-pedia.org/api/getReviewsByPlaceId?placeId=196400,Bar,Nightlife,0.0
,attraction,http://tour-pedia.org/api/getPlaceDetails?id=196409,196409,43.79757903782,11.129001366996,Tuscany,Polisportiva Sorms,1.0,4be5d4852468c928c19f0043,5.0,http://tour-pedia.org/api/getReviewsByPlaceId?placeId=196409,Bar,Nightlife,0.0
,attraction,http://tour-pedia.org/api/getPlaceDetails?id=196443,196443,43.4226638073,11.125955460351,Tuscany,Bar Italia,2.0,4d9f4fe3e357a143b06ad774,8.0,http://tour-pedia.org/api/getReviewsByPlaceId?placeId=196443,Cocktail Bar,Nightlife,0.0
Viale Dei Mille,attraction,http://tour-pedia.org/api/getPlaceDetails?id=196455,196455,43.4074334,11.1273686,Tuscany,Il Barrino,1.0,4e54e1ef7d8b96cd061206da,10.0,http://tour-pedia.org/api/getReviewsByPlaceId?placeId=196455,Bar,Nightlife,0.0
,attraction,http://tour-pedia.org/api/getPlaceDetails?id=196519,196519,43.80649170149,11.140135488565,Tuscany,Finalmente A Nanna !!!,1.0,4f5bed09e4b0d8f7b68145a7,5.0,http://tour-pedia.org/api/getReviewsByPlaceId?placeId=196519,Sake Bar,Nightlife,0.0
,attraction,http://tour-pedia.org/api/getPlaceDetails?id=196561,196561,42.765975278939,11.117868513995,Tuscany,Kristal,1.0,4d0e615a5b8a8cfa0ae7e983,0.0,http://tour-pedia.org/api/getReviewsByPlaceId?placeId=196561,Cocktail Bar,Nightlife,0.0
,attraction,http://tour-pedia.org/api/getPlaceDetails?id=196610,196610,43.855348317755,11.146399680091,Tuscany,Fabrik,2.0,4bef2569ea570f4703fb8ed2,7.0,http://tour-pedia.org/api/getReviewsByPlaceId?placeId=196610,Gay Bar,Nightlife,0.69
Via Mugellese,attraction,http://tour-pedia.org/api/getPlaceDetails?id=196617,196617,43.851562956943,11.148246393824,Tuscany,Chapeau,1.0,4edabb947ee5e8e3e74ed2f2,10.0,http://tour-pedia.org/api/getReviewsByPlaceId?placeId=196617,Cocktail Bar,Nightlife,0.56
,attraction,http://tour-pedia.org/api/getPlaceDetails?id=196646,196646,43.468501415371,11.146814358286,Tuscany,Bar Politeama,3.0,4e342f0688772aabd8b48fb5,8.0,http://tour-pedia.org/api/getReviewsByPlaceId?placeId=196646,Cocktail Bar,Nightlife,0.89
"Via Montegrappa, 51",attraction,http://tour-pedia.org/api/getPlaceDetails?id=196653,196653,43.47140545,11.14870935,Tuscany,Baraonda Lounge Café,2.0,4e844f389adffd3a44f18209,5.0,http://tour-pedia.org/api/getReviewsByPlaceId?placeId=196653,Bar,Nightlife,0.89
,attraction,http://tour-pedia.org/api/getPlaceDetails?id=196688,196688,42.563758,11.145732,Tuscany,Poderino sunset,2.0,4f92ece7e4b020d1a2e08d63,8.0,http://tour-pedia.org/api/getReviewsByPlaceId?placeId=196688,Cocktail Bar,Nightlife,0.89
Via Degli Olmi 65,attraction,http://tour-pedia.org/api/getPlaceDetails?id=196838,196838,43.837436639536,11.172730922699,Tuscany,Mix Bar,6.0,4c2fd56a452620a1a0461e0f,6.0,http://tour-pedia.org/api/getReviewsByPlaceId?placeId=196838,Cocktail Bar,Nightlife,0.89
"Via Francesco da Barberino, 33",attraction,http://tour-pedia.org/api/getPlaceDetails?id=196886,196886,43.543527175692,11.172179413066,Tuscany,Cafè Bijou - Loungebar,1.0,4db347d4f7b121c29f33d404,10.0,http://tour-pedia.org/api/getReviewsByPlaceId?placeId=196886,Cocktail Bar,Nightlife,0.97
Piazzale Della Resistenza 2/C,attraction,http://tour-pedia.org/api/getPlaceDetails?id=196952,196952,43.756512,11.177074,Tuscany,Over Glass,1.0,526d55b6498e127c32274072,0.0,http://tour-pedia.org/api/getReviewsByPlaceId?placeId=196952,Cocktail Bar,Nightlife,0.97
"Via Cimabue, 3",attraction,http://tour-pedia.org/api/getPlaceDetails?id=196968,196968,43.748747898834,11.180044077781,Tuscany,Bar Le Meraviglie,1.0,4dfbb9ba483b74244b68274e,5.0,http://tour-pedia.org/api/getReviewsByPlaceId?placeId=196968,Bar,Nightlife,0.97
,attraction,http://tour-pedia.org/api/getPlaceDetails?id=196982,196982,43.546350664371,11.177223345009,Tuscany,Circolo Arci Semifonte,1.0,4d8287279b7ab1f70b685541,5.0,http://tour-pedia.org/api/getReviewsByPlaceId?placeId=196982,Bar,Nightlife,0.97
"Via Scansanese, 58100 Grosseto GR",attraction,http://tour-pedia.org/api/getPlaceDetails?id=197001,197001,42.779577395151,11.177278652716,Tuscany,Bar Fina,1.0,4ed650678231ee8d68aac940,10.0,http://tour-pedia.org/api/getReviewsByPlaceId?placeId=197001,Bar,Nightlife,0.44
"Via Lucchese, 14",attraction,http://tour-pedia.org/api/getPlaceDetails?id=197022,197022,43.803728,11.18559102,Tuscany,Bar Osmannoro,1.0,4c89d54a2e333704ec7fbe41,2.0,http://tour-pedia.org/api/getReviewsByPlaceId?placeId=197022,Bar,Nightlife,0.44
Via Cavallaccio,attraction,http://tour-pedia.org/api/getPlaceDetails?id=197039,197039,43.772078723697,11.189441573673,Tuscany,Churrascaria Rio Grande,2.0,508c5a58e4b0e1fc2b3dbc01,4.0,http://tour-pedia.org/api/getReviewsByPlaceId?placeId=197039,Cocktail Bar,Nightlife,0.44
,attraction,http://tour-pedia.org/api/getPlaceDetails?id=197059,197059,43.752971771435,11.188252317661,Tuscany,L'agora',1.0,4e960d9b61af7b87715aa681,5.0,http://tour-pedia.org/api/getReviewsByPlaceId?placeId=197059,Karaoke Bar,Nightlife,0.44
,attraction,http://tour-pedia.org/api/getPlaceDetails?id=197105,197105,43.843598066272,11.193279337593,Tuscany,Tennis Club Sesto,1.0,4e69195b45dd6cc5bd483695,5.0,http://tour-pedia.org/api/getReviewsByPlaceId?placeId=197105,Bar,Nightlife,0.44
Aeroporto di Firenze,attraction,http://tour-pedia.org/api/getPlaceDetails?id=197143,197143,43.802002307432,11.201312795983,Tuscany,Acafe' Autogrill,1.0,4e325dce1495d5790be53ca3,9.0,http://tour-pedia.org/api/getReviewsByPlaceId?placeId=197143,Bar,Nightlife,0.85
Via Fuori le Mura,attraction,http://tour-pedia.org/api/getPlaceDetails?id=197221,197221,42.7825050354,11.191128730774,Tuscany,Circolo A.R.C.I di Istia,2.0,4ed0daa1e5faa5ec034c777e,8.0,http://tour-pedia.org/api/getReviewsByPlaceId?placeId=197221,Bar,Nightlife,0.85
,attraction,http://tour-pedia.org/api/getPlaceDetails?id=197283,197283,43.796296841709,11.205948825028,Tuscany,Bar Caffè L'incontro,1.0,4edb3e71f9abeea3daacc913,10.0,http://tour-pedia.org/api/getReviewsByPlaceId?placeId=197283,Bar,Nightlife,0.85
via del caeravaggio,attraction,http://tour-pedia.org/api/getPlaceDetails?id=197302,197302,43.767483423839,11.203179359436,Tuscany,Bar Caravaggio,1.0,4e64a173ae60e9edf6acf8f3,0.0,http://tour-pedia.org/api/getReviewsByPlaceId?placeId=197302,Bar,Nightlife,0.85
"via dell'appetito,65",attraction,http://tour-pedia.org/api/getPlaceDetails?id=197351,197351,42.403246,11.200751,Tuscany,Zig Zag Cafè,5.0,4e18e1167d8b8af913928234,6.0,http://tour-pedia.org/api/getReviewsByPlaceId?placeId=197351,Cocktail Bar,Nightlife,0.97
Via Ginori,attraction,http://tour-pedia.org/api/getPlaceDetails?id=197370,197370,43.839232012614,11.210668087006,Tuscany,Eden's Garden Pub,1.0,4c8aac1c9ef0224b5f095d7b,10.0,http://tour-pedia.org/api/getReviewsByPlaceId?placeId=197370,Dive Bar,Nightlife,0.97
"Via Pascucci,40",attraction,http://tour-pedia.org/api/getPlaceDetails?id=197415,197415,42.502443,11.207442,Tuscany,L'oca bianca,5.0,4deaa244e4cdc079f489e96b,5.0,http://tour-pedia.org/api/getReviewsByPlaceId?placeId=197415,Wine Bar,Nightlife,0.97
,attraction,http://tour-pedia.org/api/getPlaceDetails?id=197416,197416,42.499345203009,11.206286301055,Tuscany,Agrietruria,2.0,4e4d80db6284ed1c0d4dc530,5.0,http://tour-pedia.org/api/getReviewsByPlaceId?placeId=197416,Wine Bar,Nightlife,0.21
Piazza Eroe dei due Mondi 8,attraction,http://tour-pedia.org/api/getPlaceDetails?id=197426,197426,42.438158507449,11.210784247635,Tuscany,Bar Ba Gianni,1.0,4c277120905a0f47c2d96460,10.0,http://tour-pedia.org/api/getReviewsByPlaceId?placeId=197426,Bar,Nightlife,0.51
Corso Italia 60-62,attraction,http://tour-pedia.org/api/getPlaceDetails?id=197430,197430,42.438365242302,11.211615116498,Tuscany,Rossi Cafè,3.0,4e50278f18a8af30fd900999,7.0,http://tour-pedia.org/api/getReviewsByPlaceId?placeId=197430,Cocktail Bar,Nightlife,0.51
"Lungomare Andrea Doria, 30",attraction,http://tour-pedia.org/api/getPlaceDetails?id=197448,197448,42.393155694008,11.205109,Tuscany,Bi Bar,1.0,4db46a6a6a23c31a0316efe5,0.0,http://tour-pedia.org/api/getReviewsByPlaceId?placeId=197448,Bar,Nightlife,0.23
